department,district,path,lat,lon,solar_jan_dez,solar_media_anual,precip_jan_dez,precip_total_anual_mm,inclinacao_anual_graus,inclinacao_inverno_graus,inclinacao_verao_graus,fonte,data_acesso
03_Cordillera,Tobati,Departamentos/03_Cordillera/Tobati,-25.2602337,-57.0824109,6.76|6.20|5.42|4.44|3.36|2.83|3.21|3.93|4.61|5.49|6.42|6.78,4.95,4.09|4.96|4.29|4.95|4.91|2.61|2.14|1.32|2.58|5.53|6.42|5.66,1506,25,35,15,nasa_power,2026-03-20
03_Cordillera,Valenzuela,Departamentos/03_Cordillera/Valenzuela,-25.5945372,-56.8705538,6.74|6.20|5.50|4.48|3.35|2.88|3.21|3.96|4.59|5.43|6.43|6.81,4.96,4.09|4.96|4.29|4.95|4.91|2.61|2.14|1.32|2.58|5.53|6.42|5.66,1506,26,36,16,nasa_power,2026-03-20
04_Guaira,Borja,Departamentos/04_Guaira/Borja,-25.9507222,-56.4961614,6.74|6.20|5.50|4.48|3.35|2.88|3.21|3.96|4.59|5.43|6.43|6.81,4.96,4.35|4.55|4.28|5.31|5.34|3.12|2.53|1.97|3.11|6.11|6.25|5.30,1590,26,36,16,nasa_power,2026-03-20
04_Guaira,Capitan_Mauricio_Jose_Troche,Departamentos/04_Guaira/Capitan_Mauricio_Jose_Troche,-25.6159267,-56.2773937,6.74|6.20|5.50|4.48|3.35|2.88|3.21|3.96|4.59|5.43|6.43|6.81,4.96,4.22|4.82|4.21|5.08|5.55|3.01|2.43|1.68|3.07|6.04|6.33|5.37,1577,26,36,16,nasa_power,2026-03-20
04_Guaira,Coronel_Martinez,Departamentos/04_Guaira/Coronel_Martinez,-25.7592199,-56.6192144,6.74|6.20|5.50|4.48|3.35|2.88|3.21|3.96|4.59|5.43|6.43|6.81,4.96,4.27|4.46|4.28|5.24|5.08|2.87|2.37|1.77|2.90|5.84|6.23|5.42,1544,26,36,16,nasa_power,2026-03-20
04_Guaira,Doctor_Botrell,Departamentos/04_Guaira/Doctor_Botrell,-25.6149241,-56.3398852,6.74|6.20|5.50|4.48|3.35|2.88|3.21|3.96|4.59|5.43|6.43|6.81,4.96,4.22|4.82|4.21|5.08|5.55|3.01|2.43|1.68|3.07|6.04|6.33|5.37,1577,26,36,16,nasa_power,2026-03-20
04_Guaira,Felix_Perez_Cardozo,Departamentos/04_Guaira/Felix_Perez_Cardozo,-25.7428872,-56.5227793,6.74|6.20|5.50|4.48|3.35|2.88|3.21|3.96|4.59|5.43|6.43|6.81,4.96,4.22|4.82|4.21|5.08|5.55|3.01|2.43|1.68|3.07|6.04|6.33|5.37,1577,26,36,16,nasa_power,2026-03-20
04_Guaira,General_Eugenio_A_Garay,Departamentos/04_Guaira/General_Eugenio_A_Garay,-25.9684172,-56.1861176,6.74|6.20|5.50|4.48|3.35|2.88|3.21|3.96|4.59|5.43|6.43|6.81,4.96,4.35|4.55|4.28|5.31|5.34|3.12|2.53|1.97|3.11|6.11|6.25|5.30,1590,26,36,16,nasa_power,2026-03-20
04_Guaira,Independencia,Departamentos/04_Guaira/Independencia,-25.706892,-56.1821368,6.74|6.20|5.50|4.48|3.35|2.88|3.21|3.96|4.59|5.43|6.43|6.81,4.96,4.22|4.82|4.21|5.08|5.55|3.01|2.43|1.68|3.07|6.04|6.33|5.37,1577,26,36,16,nasa_power,2026-03-20
04_Guaira,Itape,Departamentos/04_Guaira/Itape,-25.8520504,-56.6147051,6.74|6.20|5.50|4.48|3.35|2.88|3.21|3.96|4.59|5.43|6.43|6.81,4.96,4.27|4.46|4.28|5.24|5.08|2.87|2.37|1.77|2.90|5.84|6.23|5.42,1544,26,36,16,nasa_power,2026-03-20
04_Guaira,Iturbe,Departamentos/04_Guaira/Iturbe,-26.0583952,-56.4874273,6.71|6.20|5.39|4.34|3.26|2.77|3.10|3.79|4.42|5.34|6.39|6.76,4.87,4.35|4.55|4.28|5.31|5.34|3.12|2.53|1.97|3.11|6.11|6.25|5.30,1590,26,36,16,nasa_power,2026-03-20
04_Guaira,Jose_Fassardi,Departamentos/04_Guaira/Jose_Fassardi,-25.9795583,-56.1217721,6.74|6.20|5.50|4.48|3.35|2.88|3.21|3.96|4.59|5.43|6.43|6.81,4.96,4.35|4.55|4.28|5.31|5.34|3.12|2.53|1.97|3.11|6.11|6.25|5.30,1590,26,36,16,nasa_power,2026-03-20
04_Guaira,Mbocayaty_del_Guaira,Departamentos/04_Guaira/Mbocayaty_del_Guaira,-25.7148266,-56.4080301,6.74|6.20|5.50|4.48|3.35|2.88|3.21|3.96|4.59|5.43|6.43|6.81,4.96,4.22|4.82|4.21|5.08|5.55|3.01|2.43|1.68|3.07|6.04|6.33|5.37,1577,26,36,16,nasa_power,2026-03-20
04_Guaira,Natalicio_Talavera,Departamentos/04_Guaira/Natalicio_Talavera,-25.6547363,-56.3083909,6.74|6.20|5.50|4.48|3.35|2.88|3.21|3.96|4.59|5.43|6.43|6.81,4.96,4.22|4.82|4.21|5.08|5.55|3.01|2.43|1.68|3.07|6.04|6.33|5.37,1577,26,36,16,nasa_power,2026-03-20
04_Guaira,Numi,Departamentos/04_Guaira/Numi,-25.6055208,-56.3049434,6.74|6.20|5.50|4.48|3.35|2.88|3.21|3.96|4.59|5.43|6.43|6.81,4.96,4.22|4.82|4.21|5.08|5.55|3.01|2.43|1.68|3.07|6.04|6.33|5.37,1577,26,36,16,nasa_power,2026-03-20
04_Guaira,Paso_Yobai,Departamentos/04_Guaira/Paso_Yobai,-25.7132848,-56.0015539,6.74|6.20|5.50|4.48|3.35|2.88|3.21|3.96|4.59|5.43|6.43|6.81,4.96,4.22|4.82|4.21|5.08|5.55|3.01|2.43|1.68|3.07|6.04|6.33|5.37,1577,26,36,16,nasa_power,2026-03-20
04_Guaira,San_Salvador,Departamentos/04_Guaira/San_Salvador,-25.9430646,-56.4710195,6.74|6.20|5.50|4.48|3.35|2.88|3.21|3.96|4.59|5.43|6.43|6.81,4.96,4.35|4.55|4.28|5.31|5.34|3.12|2.53|1.97|3.11|6.11|6.25|5.30,1590,26,36,16,nasa_power,2026-03-20
04_Guaira,Tebicuary,Departamentos/04_Guaira/Tebicuary,-25.853769,-56.6133522,6.74|6.20|5.50|4.48|3.35|2.88|3.21|3.96|4.59|5.43|6.43|6.81,4.96,4.27|4.46|4.28|5.24|5.08|2.87|2.37|1.77|2.90|5.84|6.23|5.42,1544,26,36,16,nasa_power,2026-03-20
04_Guaira,Villarrica,Departamentos/04_Guaira/Villarrica,-25.7809839,-56.4478765,6.74|6.20|5.50|4.48|3.35|2.88|3.21|3.96|4.59|5.43|6.43|6.81,4.96,4.35|4.55|4.28|5.31|5.34|3.12|2.53|1.97|3.11|6.11|6.25|5.30,1590,26,36,16,nasa_power,2026-03-20
04_Guaira,Yataity_del_Guaira,Departamentos/04_Guaira/Yataity_del_Guaira,-25.6891251,-56.4668019,6.74|6.20|5.50|4.48|3.35|2.88|3.21|3.96|4.59|5.43|6.43|6.81,4.96,4.22|4.82|4.21|5.08|5.55|3.01|2.43|1.68|3.07|6.04|6.33|5.37,1577,26,36,16,nasa_power,2026-03-20
05_Caaguazu,Caaguazu,Departamentos/05_Caaguazu/Caaguazu,-25.4661756,-56.0181685,6.74|6.20|5.50|4.48|3.35|2.88|3.21|3.96|4.59|5.43|6.43|6.81,4.96,4.22|4.82|4.21|5.08|5.55|3.01|2.43|1.68|3.07|6.04|6.33|5.37,1577,25,35,15,nasa_power,2026-03-20
05_Caaguazu,Carayao,Departamentos/05_Caaguazu/Carayao,-25.2003076,-56.397201,6.74|6.20|5.50|4.48|3.35|2.88|3.21|3.96|4.59|5.43|6.43|6.81,4.96,4.01|5.07|4.02|4.91|5.57|2.99|2.26|1.49|3.14|5.94|6.33|5.41,1557,25,35,15,nasa_power,2026-03-20
05_Caaguazu,Coronel_Oviedo,Departamentos/05_Caaguazu/Coronel_Oviedo,-25.450055,-56.4406994,6.74|6.20|5.50|4.48|3.35|2.88|3.21|3.96|4.59|5.43|6.43|6.81,4.96,4.22|4.82|4.21|5.08|5.55|3.01|2.43|1.68|3.07|6.04|6.33|5.37,1577,25,35,15,nasa_power,2026-03-20
05_Caaguazu,Doctor_Cecilio_Baez,Departamentos/05_Caaguazu/Doctor_Cecilio_Baez,-25.0715236,-56.2430442,6.74|6.20|5.50|4.48|3.35|2.88|3.21|3.96|4.59|5.43|6.43|6.81,4.96,4.01|5.07|4.02|4.91|5.57|2.99|2.26|1.49|3.14|5.94|6.33|5.41,1557,25,35,15,nasa_power,2026-03-20
05_Caaguazu,Doctor_Eulogio_Estigarribia,Departamentos/05_Caaguazu/Doctor_Eulogio_Estigarribia,-25.3715319,-55.7044814,6.58|6.08|5.45|4.47|3.30|2.90|3.20|3.96|4.53|5.31|6.35|6.66,4.9,4.57|4.59|4.07|5.06|5.70|3.14|2.55|1.76|3.44|6.11|6.26|5.55,1607,25,35,15,nasa_power,2026-03-20
05_Caaguazu,Doctor_Juan_Manuel_Frutos,Departamentos/05_Caaguazu/Doctor_Juan_Manuel_Frutos,-25.3859791,-55.8332378,6.58|6.08|5.45|4.47|3.30|2.90|3.20|3.96|4.53|5.31|6.35|6.66,4.9,4.57|4.59|4.07|5.06|5.70|3.14|2.55|1.76|3.44|6.11|6.26|5.55,1607,25,35,15,nasa_power,2026-03-20
05_Caaguazu,Jose_Domingo_Ocampos,Departamentos/05_Caaguazu/Jose_Domingo_Ocampos,-25.4110492,-55.4252228,6.58|6.08|5.45|4.47|3.30|2.90|3.20|3.96|4.53|5.31|6.35|6.66,4.9,4.57|4.59|4.07|5.06|5.70|3.14|2.55|1.76|3.44|6.11|6.26|5.55,1607,25,35,15,nasa_power,2026-03-20
05_Caaguazu,La_Pastora,Departamentos/05_Caaguazu/La_Pastora,-25.2469599,-56.5383271,6.74|6.20|5.50|4.48|3.35|2.88|3.21|3.96|4.59|5.43|6.43|6.81,4.96,4.01|5.07|4.02|4.91|5.57|2.99|2.26|1.49|3.14|5.94|6.33|5.41,1557,25,35,15,nasa_power,2026-03-20
05_Caaguazu,Mariscal_Francisco_Solano_Lopez,Departamentos/05_Caaguazu/Mariscal_Francisco_Solano_Lopez,-25.4651112,-56.0200575,6.74|6.20|5.50|4.48|3.35|2.88|3.21|3.96|4.59|5.43|6.43|6.81,4.96,4.22|4.82|4.21|5.08|5.55|3.01|2.43|1.68|3.07|6.04|6.33|5.37,1577,25,35,15,nasa_power,2026-03-20
05_Caaguazu,Nueva_Londres,Departamentos/05_Caaguazu/Nueva_Londres,-25.4044721,-56.5498473,6.74|6.20|5.50|4.48|3.35|2.88|3.21|3.96|4.59|5.43|6.43|6.81,4.96,4.22|4.82|4.21|5.08|5.55|3.01|2.43|1.68|3.07|6.04|6.33|5.37,1577,25,35,15,nasa_power,2026-03-20
05_Caaguazu,Nueva_Toledo,Departamentos/05_Caaguazu/Nueva_Toledo,-24.9707185,-55.6244966,6.56|6.04|5.59|4.57|3.37|2.97|3.27|4.04|4.58|5.29|6.28|6.54,4.92,4.32|4.90|3.91|4.93|5.62|3.09|2.36|1.64|3.45|6.00|6.16|5.55,1581,25,35,15,nasa_power,2026-03-20
05_Caaguazu,RI_Tres_Corrales,Departamentos/05_Caaguazu/RI_Tres_Corrales,-25.3167,-55.7667,6.58|6.08|5.45|4.47|3.30|2.90|3.20|3.96|4.53|5.31|6.35|6.66,4.9,4.57|4.59|4.07|5.06|5.70|3.14|2.55|1.76|3.44|6.11|6.26|5.55,1607,25,35,15,nasa_power,2026-03-20
05_Caaguazu,Raul_Arsenio_Oviedo,Departamentos/05_Caaguazu/Raul_Arsenio_Oviedo,-25.1968336,-55.6056436,6.58|6.08|5.45|4.47|3.30|2.90|3.20|3.96|4.53|5.31|6.35|6.66,4.9,4.32|4.90|3.91|4.93|5.62|3.09|2.36|1.64|3.45|6.00|6.16|5.55,1581,25,35,15,nasa_power,2026-03-20
05_Caaguazu,Repatriacion,Departamentos/05_Caaguazu/Repatriacion,-25.5365912,-55.9931355,6.58|6.08|5.45|4.47|3.30|2.90|3.20|3.96|4.53|5.31|6.35|6.66,4.9,4.22|4.82|4.21|5.08|5.55|3.01|2.43|1.68|3.07|6.04|6.33|5.37,1577,26,36,16,nasa_power,2026-03-20
05_Caaguazu,San_Joaquin,Departamentos/05_Caaguazu/San_Joaquin,-25.0276651,-56.0439584,6.74|6.20|5.50|4.48|3.35|2.88|3.21|3.96|4.59|5.43|6.43|6.81,4.96,4.01|5.07|4.02|4.91|5.57|2.99|2.26|1.49|3.14|5.94|6.33|5.41,1557,25,35,15,nasa_power,2026-03-20
05_Caaguazu,San_Jose_de_los_Arroyos,Departamentos/05_Caaguazu/San_Jose_de_los_Arroyos,-25.5322822,-56.7317808,6.74|6.20|5.50|4.48|3.35|2.88|3.21|3.96|4.59|5.43|6.43|6.81,4.96,4.09|4.96|4.29|4.95|4.91|2.61|2.14|1.32|2.58|5.53|6.42|5.66,1506,26,36,16,nasa_power,2026-03-20
05_Caaguazu,Santa_Rosa_del_Mbutuy,Departamentos/05_Caaguazu/Santa_Rosa_del_Mbutuy,-24.982285,-56.2561878,6.73|6.14|5.58|4.61|3.40|2.96|3.24|4.04|4.62|5.38|6.37|6.67,4.98,4.01|5.07|4.02|4.91|5.57|2.99|2.26|1.49|3.14|5.94|6.33|5.41,1557,25,35,15,nasa_power,2026-03-20
05_Caaguazu,Simon_Bolivar,Departamentos/05_Caaguazu/Simon_Bolivar,-25.0497289,-56.3254977,6.74|6.20|5.50|4.48|3.35|2.88|3.21|3.96|4.59|5.43|6.43|6.81,4.96,4.01|5.07|4.02|4.91|5.57|2.99|2.26|1.49|3.14|5.94|6.33|5.41,1557,25,35,15,nasa_power,2026-03-20
05_Caaguazu,Tembiapora,Departamentos/05_Caaguazu/Tembiapora,-25.3531583,-55.3777523,6.58|6.08|5.45|4.47|3.30|2.90|3.20|3.96|4.53|5.31|6.35|6.66,4.9,4.57|4.59|4.07|5.06|5.70|3.14|2.55|1.76|3.44|6.11|6.26|5.55,1607,25,35,15,nasa_power,2026-03-20
05_Caaguazu,Tres_de_Febrero,Departamentos/05_Caaguazu/Tres_de_Febrero,-25.2457526,-55.7752737,6.58|6.08|5.45|4.47|3.30|2.90|3.20|3.96|4.53|5.31|6.35|6.66,4.9,4.32|4.90|3.91|4.93|5.62|3.09|2.36|1.64|3.45|6.00|6.16|5.55,1581,25,35,15,nasa_power,2026-03-20
05_Caaguazu,Vaqueria,Departamentos/05_Caaguazu/Vaqueria,-24.9937428,-55.8200886,6.56|6.04|5.59|4.57|3.37|2.97|3.27|4.04|4.58|5.29|6.28|6.54,4.92,4.32|4.90|3.91|4.93|5.62|3.09|2.36|1.64|3.45|6.00|6.16|5.55,1581,25,35,15,nasa_power,2026-03-20
05_Caaguazu,Yhu,Departamentos/05_Caaguazu/Yhu,-25.056433,-55.9224442,6.58|6.08|5.45|4.47|3.30|2.90|3.20|3.96|4.53|5.31|6.35|6.66,4.9,4.32|4.90|3.91|4.93|5.62|3.09|2.36|1.64|3.45|6.00|6.16|5.55,1581,25,35,15,nasa_power,2026-03-20
06_Caazapa,3_de_Mayo,Departamentos/06_Caazapa/3_de_Mayo,-26.4809673,-56.0956001,6.71|6.20|5.39|4.34|3.26|2.77|3.10|3.79|4.42|5.34|6.39|6.76,4.87,4.55|4.35|4.39|5.70|5.04|3.34|2.63|2.28|3.35|6.25|6.26|5.38,1629,26,36,16,nasa_power,2026-03-20
06_Caazapa,Abai,Departamentos/06_Caazapa/Abai,-26.0409337,-55.9442315,6.56|6.06|5.32|4.33|3.21|2.76|3.08|3.81|4.39|5.25|6.31|6.67,4.81,4.35|4.55|4.28|5.31|5.34|3.12|2.53|1.97|3.11|6.11|6.25|5.30,1590,26,36,16,nasa_power,2026-03-20
06_Caazapa,Buena_Vista,Departamentos/06_Caazapa/Buena_Vista,-26.1839492,-56.082775,6.71|6.20|5.39|4.34|3.26|2.77|3.10|3.79|4.42|5.34|6.39|6.76,4.87,4.35|4.55|4.28|5.31|5.34|3.12|2.53|1.97|3.11|6.11|6.25|5.30,1590,26,36,16,nasa_power,2026-03-20
06_Caazapa,Caazapa,Departamentos/06_Caazapa/Caazapa,-26.1973302,-56.3666422,6.71|6.20|5.39|4.34|3.26|2.77|3.10|3.79|4.42|5.34|6.39|6.76,4.87,4.35|4.55|4.28|5.31|5.34|3.12|2.53|1.97|3.11|6.11|6.25|5.30,1590,26,36,16,nasa_power,2026-03-20
06_Caazapa,Doctor_Moises_Bertoni,Departamentos/06_Caazapa/Doctor_Moises_Bertoni,-26.3560391,-56.4847984,6.71|6.20|5.39|4.34|3.26|2.77|3.10|3.79|4.42|5.34|6.39|6.76,4.87,4.55|4.35|4.39|5.70|5.04|3.34|2.63|2.28|3.35|6.25|6.26|5.38,1629,26,36,16,nasa_power,2026-03-20
06_Caazapa,Fulgencio_Yegros,Departamentos/06_Caazapa/Fulgencio_Yegros,-26.4555348,-56.4037709,6.71|6.20|5.39|4.34|3.26|2.77|3.10|3.79|4.42|5.34|6.39|6.76,4.87,4.55|4.35|4.39|5.70|5.04|3.34|2.63|2.28|3.35|6.25|6.26|5.38,1629,26,36,16,nasa_power,2026-03-20
06_Caazapa,General_Higinio_Morinigo,Departamentos/06_Caazapa/General_Higinio_Morinigo,-26.0272686,-56.0845959,6.71|6.20|5.39|4.34|3.26|2.77|3.10|3.79|4.42|5.34|6.39|6.76,4.87,4.35|4.55|4.28|5.31|5.34|3.12|2.53|1.97|3.11|6.11|6.25|5.30,1590,26,36,16,nasa_power,2026-03-20
06_Caazapa,Maciel,Departamentos/06_Caazapa/Maciel,-26.1825151,-56.4726609,6.71|6.20|5.39|4.34|3.26|2.77|3.10|3.79|4.42|5.34|6.39|6.76,4.87,4.35|4.55|4.28|5.31|5.34|3.12|2.53|1.97|3.11|6.11|6.25|5.30,1590,26,36,16,nasa_power,2026-03-20
06_Caazapa,San_Juan_Nepomuceno,Departamentos/06_Caazapa/San_Juan_Nepomuceno,-26.1115601,-55.9360092,6.56|6.06|5.32|4.33|3.21|2.76|3.08|3.81|4.39|5.25|6.31|6.67,4.81,4.57|4.51|4.21|5.38|5.35|3.40|2.68|2.06|3.40|6.23|6.12|5.46,1625,26,36,16,nasa_power,2026-03-20
06_Caazapa,Tavarai,Departamentos/06_Caazapa/Tavarai,-26.25,-56.55,6.71|6.20|5.39|4.34|3.26|2.77|3.10|3.79|4.42|5.34|6.39|6.76,4.87,4.35|4.55|4.28|5.31|5.34|3.12|2.53|1.97|3.11|6.11|6.25|5.30,1590,26,36,16,nasa_power,2026-03-20
06_Caazapa,Yuty,Departamentos/06_Caazapa/Yuty,-26.6141187,-56.2475118,6.71|6.20|5.39|4.34|3.26|2.77|3.10|3.79|4.42|5.34|6.39|6.76,4.87,4.55|4.35|4.39|5.70|5.04|3.34|2.63|2.28|3.35|6.25|6.26|5.38,1629,27,37,17,nasa_power,2026-03-20
07_Itapua,Alto_Vera,Departamentos/07_Itapua/Alto_Vera,-26.7521622,-55.7682012,6.56|6.06|5.32|4.33|3.21|2.76|3.08|3.81|4.39|5.25|6.31|6.67,4.81,4.96|4.31|4.72|6.14|4.85|3.67|2.91|2.65|3.76|6.66|6.44|5.82,1732,27,37,17,nasa_power,2026-03-20
07_Itapua,Bella_Vista,Departamentos/07_Itapua/Bella_Vista,-27.0422036,-55.5770692,6.56|6.11|5.31|4.26|3.15|2.69|2.99|3.69|4.36|5.27|6.39|6.73,4.79,4.96|4.31|4.72|6.14|4.85|3.67|2.91|2.65|3.76|6.66|6.44|5.82,1732,27,37,17,nasa_power,2026-03-20
07_Itapua,Cambreta,Departamentos/07_Itapua/Cambreta,-27.2833,-55.7333,6.56|6.11|5.31|4.26|3.15|2.69|2.99|3.69|4.36|5.27|6.39|6.73,4.79,5.02|4.41|4.81|6.21|4.73|3.73|2.97|2.89|4.05|6.94|6.35|6.05,1770,27,37,17,nasa_power,2026-03-20
07_Itapua,Capitan_Meza,Departamentos/07_Itapua/Capitan_Meza,-26.9364706,-55.23533,6.56|6.06|5.32|4.33|3.21|2.76|3.08|3.81|4.39|5.25|6.31|6.67,4.81,4.95|4.55|4.41|6.16|4.99|4.00|3.19|2.71|3.89|6.63|6.18|5.86,1751,27,37,17,nasa_power,2026-03-20
07_Itapua,Capitan_Miranda,Departamentos/07_Itapua/Capitan_Miranda,-27.2196484,-55.8011417,6.56|6.11|5.31|4.26|3.15|2.69|2.99|3.69|4.36|5.27|6.39|6.73,4.79,4.96|4.31|4.72|6.14|4.85|3.67|2.91|2.65|3.76|6.66|6.44|5.82,1732,27,37,17,nasa_power,2026-03-20
07_Itapua,Carlos_Antonio_Lopez,Departamentos/07_Itapua/Carlos_Antonio_Lopez,-26.3985002,-54.7568241,6.47|6.02|5.33|4.39|3.24|2.80|3.13|3.90|4.47|5.26|6.32|6.54,4.82,4.80|4.56|4.33|5.81|5.02|3.95|3.04|2.44|3.78|6.64|6.00|5.88,1712,26,36,16,nasa_power,2026-03-20
07_Itapua,Carmen_del_Parana,Departamentos/07_Itapua/Carmen_del_Parana,-27.2209064,-56.1479269,6.74|6.25|5.37|4.27|3.19|2.70|3.05|3.74|4.44|5.36|6.49|6.87,4.87,4.84|4.35|4.71|6.12|4.78|3.57|2.75|2.59|3.69|6.66|6.46|5.76,1713,27,37,17,nasa_power,2026-03-20
07_Itapua,Coronel_Bogado,Departamentos/07_Itapua/Coronel_Bogado,-27.1605297,-56.2414071,6.74|6.25|5.37|4.27|3.19|2.70|3.05|3.74|4.44|5.36|6.49|6.87,4.87,4.84|4.35|4.71|6.12|4.78|3.57|2.75|2.59|3.69|6.66|6.46|5.76,1713,27,37,17,nasa_power,2026-03-20
07_Itapua,Edelira,Departamentos/07_Itapua/Edelira,-27.310307,-55.855905,6.56|6.11|5.31|4.26|3.15|2.69|2.99|3.69|4.36|5.27|6.39|6.73,4.79,5.02|4.41|4.81|6.21|4.73|3.73|2.97|2.89|4.05|6.94|6.35|6.05,1770,27,37,17,nasa_power,2026-03-20
07_Itapua,Encarnacion,Departamentos/07_Itapua/Encarnacion,-27.3376114,-55.8669492,6.56|6.11|5.31|4.26|3.15|2.69|2.99|3.69|4.36|5.27|6.39|6.73,4.79,5.02|4.41|4.81|6.21|4.73|3.73|2.97|2.89|4.05|6.94|6.35|6.05,1770,27,37,17,nasa_power,2026-03-20
07_Itapua,Fram,Departamentos/07_Itapua/Fram,-27.0953017,-56.0190012,6.74|6.25|5.37|4.27|3.19|2.70|3.05|3.74|4.44|5.36|6.49|6.87,4.87,4.84|4.35|4.71|6.12|4.78|3.57|2.75|2.59|3.69|6.66|6.46|5.76,1713,27,37,17,nasa_power,2026-03-20
07_Itapua,General_Artigas,Departamentos/07_Itapua/General_Artigas,-26.9327817,-56.2245027,6.71|6.20|5.39|4.34|3.26|2.77|3.10|3.79|4.42|5.34|6.39|6.76,4.87,4.84|4.35|4.71|6.12|4.78|3.57|2.75|2.59|3.69|6.66|6.46|5.76,1713,27,37,17,nasa_power,2026-03-20
07_Itapua,General_Delgado,Departamentos/07_Itapua/General_Delgado,-27.0906714,-56.5254794,6.74|6.25|5.37|4.27|3.19|2.70|3.05|3.74|4.44|5.36|6.49|6.87,4.87,4.84|4.35|4.71|6.12|4.78|3.57|2.75|2.59|3.69|6.66|6.46|5.76,1713,27,37,17,nasa_power,2026-03-20
07_Itapua,Hohenau,Departamentos/07_Itapua/Hohenau,-27.0712879,-55.639978,6.56|6.11|5.31|4.26|3.15|2.69|2.99|3.69|4.36|5.27|6.39|6.73,4.79,4.96|4.31|4.72|6.14|4.85|3.67|2.91|2.65|3.76|6.66|6.44|5.82,1732,27,37,17,nasa_power,2026-03-20
07_Itapua,Itapua_Poty,Departamentos/07_Itapua/Itapua_Poty,-26.6309512,-55.5202183,6.56|6.06|5.32|4.33|3.21|2.76|3.08|3.81|4.39|5.25|6.31|6.67,4.81,4.73|4.40|4.42|5.85|5.13|3.56|2.82|2.34|3.50|6.38|6.25|5.57,1673,27,37,17,nasa_power,2026-03-20
07_Itapua,Jesus,Departamentos/07_Itapua/Jesus,-27.0560079,-55.7542622,6.56|6.11|5.31|4.26|3.15|2.69|2.99|3.69|4.36|5.27|6.39|6.73,4.79,4.96|4.31|4.72|6.14|4.85|3.67|2.91|2.65|3.76|6.66|6.44|5.82,1732,27,37,17,nasa_power,2026-03-20
07_Itapua,Jose_Leandro_Oviedo,Departamentos/07_Itapua/Jose_Leandro_Oviedo,-26.7445942,-56.279358,6.71|6.20|5.39|4.34|3.26|2.77|3.10|3.79|4.42|5.34|6.39|6.76,4.87,4.55|4.35|4.39|5.70|5.04|3.34|2.63|2.28|3.35|6.25|6.26|5.38,1629,27,37,17,nasa_power,2026-03-20
07_Itapua,La_Paz,Departamentos/07_Itapua/La_Paz,-26.9943634,-55.8888571,6.56|6.06|5.32|4.33|3.21|2.76|3.08|3.81|4.39|5.25|6.31|6.67,4.81,4.96|4.31|4.72|6.14|4.85|3.67|2.91|2.65|3.76|6.66|6.44|5.82,1732,27,37,17,nasa_power,2026-03-20
07_Itapua,Mayor_Otano,Departamentos/07_Itapua/Mayor_Otano,-26.3534303,-54.7215375,6.47|6.02|5.33|4.39|3.24|2.80|3.13|3.90|4.47|5.26|6.32|6.54,4.82,4.80|4.56|4.33|5.81|5.02|3.95|3.04|2.44|3.78|6.64|6.00|5.88,1712,26,36,16,nasa_power,2026-03-20
07_Itapua,Natalio,Departamentos/07_Itapua/Natalio,-26.7564696,-55.1367139,6.56|6.06|5.32|4.33|3.21|2.76|3.08|3.81|4.39|5.25|6.31|6.67,4.81,4.95|4.55|4.41|6.16|4.99|4.00|3.19|2.71|3.89|6.63|6.18|5.86,1751,27,37,17,nasa_power,2026-03-20
07_Itapua,Nueva_Alborada,Departamentos/07_Itapua/Nueva_Alborada,-27.2696145,-55.6796227,6.56|6.11|5.31|4.26|3.15|2.69|2.99|3.69|4.36|5.27|6.39|6.73,4.79,5.02|4.41|4.81|6.21|4.73|3.73|2.97|2.89|4.05|6.94|6.35|6.05,1770,27,37,17,nasa_power,2026-03-20
07_Itapua,Obligado,Departamentos/07_Itapua/Obligado,-27.0553072,-55.6293459,6.56|6.11|5.31|4.26|3.15|2.69|2.99|3.69|4.36|5.27|6.39|6.73,4.79,4.96|4.31|4.72|6.14|4.85|3.67|2.91|2.65|3.76|6.66|6.44|5.82,1732,27,37,17,nasa_power,2026-03-20
07_Itapua,Pirapo,Departamentos/07_Itapua/Pirapo,-26.8575086,-55.5438375,6.56|6.06|5.32|4.33|3.21|2.76|3.08|3.81|4.39|5.25|6.31|6.67,4.81,4.96|4.31|4.72|6.14|4.85|3.67|2.91|2.65|3.76|6.66|6.44|5.82,1732,27,37,17,nasa_power,2026-03-20
07_Itapua,San_Cosme_y_Damian,Departamentos/07_Itapua/San_Cosme_y_Damian,-27.3159514,-56.3312694,6.74|6.25|5.37|4.27|3.19|2.70|3.05|3.74|4.44|5.36|6.49|6.87,4.87,4.88|4.41|4.91|6.20|4.64|3.63|2.78|2.72|3.91|6.99|6.39|6.02,1750,27,37,17,nasa_power,2026-03-20
07_Itapua,San_Juan_del_Parana,Departamentos/07_Itapua/San_Juan_del_Parana,-27.2691069,-55.9898457,6.56|6.11|5.31|4.26|3.15|2.69|2.99|3.69|4.36|5.27|6.39|6.73,4.79,4.88|4.41|4.91|6.20|4.64|3.63|2.78|2.72|3.91|6.99|6.39|6.02,1750,27,37,17,nasa_power,2026-03-20
07_Itapua,San_Pedro_del_Parana,Departamentos/07_Itapua/San_Pedro_del_Parana,-26.833795,-56.2091439,6.71|6.20|5.39|4.34|3.26|2.77|3.10|3.79|4.42|5.34|6.39|6.76,4.87,4.84|4.35|4.71|6.12|4.78|3.57|2.75|2.59|3.69|6.66|6.46|5.76,1713,27,37,17,nasa_power,2026-03-20
07_Itapua,San_Rafael_del_Parana,Departamentos/07_Itapua/San_Rafael_del_Parana,-26.5942835,-54.9963893,6.47|6.02|5.33|4.39|3.24|2.80|3.13|3.90|4.47|5.26|6.32|6.54,4.82,4.80|4.56|4.33|5.81|5.02|3.95|3.04|2.44|3.78|6.64|6.00|5.88,1712,27,37,17,nasa_power,2026-03-20
07_Itapua,Tomas_Romero_Pereira,Departamentos/07_Itapua/Tomas_Romero_Pereira,-26.4640084,-55.2758653,6.56|6.06|5.32|4.33|3.21|2.76|3.08|3.81|4.39|5.25|6.31|6.67,4.81,4.80|4.56|4.33|5.81|5.02|3.95|3.04|2.44|3.78|6.64|6.00|5.88,1712,26,36,16,nasa_power,2026-03-20
07_Itapua,Trinidad,Departamentos/07_Itapua/Trinidad,-27.1450574,-55.7098346,6.56|6.11|5.31|4.26|3.15|2.69|2.99|3.69|4.36|5.27|6.39|6.73,4.79,4.96|4.31|4.72|6.14|4.85|3.67|2.91|2.65|3.76|6.66|6.44|5.82,1732,27,37,17,nasa_power,2026-03-20
07_Itapua,Yatytay,Departamentos/07_Itapua/Yatytay,-26.672829,-55.0876912,6.56|6.06|5.32|4.33|3.21|2.76|3.08|3.81|4.39|5.25|6.31|6.67,4.81,4.80|4.56|4.33|5.81|5.02|3.95|3.04|2.44|3.78|6.64|6.00|5.88,1712,27,37,17,nasa_power,2026-03-20
08_Misiones,Ayolas,Departamentos/08_Misiones/Ayolas,-27.3898739,-56.844718,6.74|6.25|5.37|4.27|3.19|2.70|3.05|3.74|4.44|5.36|6.49|6.87,4.87,4.74|4.26|4.52|5.82|4.13|3.12|2.22|2.11|3.29|6.20|6.05|5.64,1586,27,37,17,nasa_power,2026-03-20
08_Misiones,San_Ignacio,Departamentos/08_Misiones/San_Ignacio,-26.8871898,-57.0240156,6.72|6.24|5.35|4.27|3.26|2.73|3.11|3.77|4.48|5.37|6.41|6.79,4.87,4.58|4.19|4.41|5.73|4.34|3.07|2.31|2.13|3.26|6.05|6.18|5.57,1577,27,37,17,nasa_power,2026-03-20
08_Misiones,San_Juan_Bautista,Departamentos/08_Misiones/San_Juan_Bautista,-26.717513,-57.3337056,6.72|6.24|5.35|4.27|3.26|2.73|3.11|3.77|4.48|5.37|6.41|6.79,4.87,4.41|4.26|4.32|5.48|4.45|2.80|2.17|1.79|2.90|5.62|6.06|5.40,1512,27,37,17,nasa_power,2026-03-20
08_Misiones,San_Miguel,Departamentos/08_Misiones/San_Miguel,-26.534595,-57.038751,6.72|6.24|5.35|4.27|3.26|2.73|3.11|3.77|4.48|5.37|6.41|6.79,4.87,4.38|4.23|4.28|5.47|4.61|2.95|2.32|1.99|3.09|5.84|6.14|5.43,1544,27,37,17,nasa_power,2026-03-20
08_Misiones,San_Patricio,Departamentos/08_Misiones/San_Patricio,-26.976687,-56.8273098,6.71|6.20|5.39|4.34|3.26|2.77|3.10|3.79|4.42|5.34|6.39|6.76,4.87,4.58|4.19|4.41|5.73|4.34|3.07|2.31|2.13|3.26|6.05|6.18|5.57,1577,27,37,17,nasa_power,2026-03-20
08_Misiones,Santa_Maria,Departamentos/08_Misiones/Santa_Maria,-26.7825265,-56.9450719,6.71|6.20|5.39|4.34|3.26|2.77|3.10|3.79|4.42|5.34|6.39|6.76,4.87,4.58|4.19|4.41|5.73|4.34|3.07|2.31|2.13|3.26|6.05|6.18|5.57,1577,27,37,17,nasa_power,2026-03-20
08_Misiones,Santa_Rosa,Departamentos/08_Misiones/Santa_Rosa,-26.8864043,-56.8492668,6.71|6.20|5.39|4.34|3.26|2.77|3.10|3.79|4.42|5.34|6.39|6.76,4.87,4.58|4.19|4.41|5.73|4.34|3.07|2.31|2.13|3.26|6.05|6.18|5.57,1577,27,37,17,nasa_power,2026-03-20
08_Misiones,Santiago,Departamentos/08_Misiones/Santiago,-27.1402177,-56.7634235,6.74|6.25|5.37|4.27|3.19|2.70|3.05|3.74|4.44|5.36|6.49|6.87,4.87,4.58|4.19|4.41|5.73|4.34|3.07|2.31|2.13|3.26|6.05|6.18|5.57,1577,27,37,17,nasa_power,2026-03-20
08_Misiones,Villa_Florida,Departamentos/08_Misiones/Villa_Florida,-26.408432,-57.1252096,6.72|6.24|5.35|4.27|3.26|2.73|3.11|3.77|4.48|5.37|6.41|6.79,4.87,4.38|4.23|4.28|5.47|4.61|2.95|2.32|1.99|3.09|5.84|6.14|5.43,1544,26,36,16,nasa_power,2026-03-20
08_Misiones,Yabebyry,Departamentos/08_Misiones/Yabebyry,-27.3792946,-57.1653769,6.76|6.25|5.34|4.21|3.22|2.68|3.07|3.76|4.52|5.40|6.52|6.87,4.89,4.74|4.26|4.52|5.82|4.13|3.12|2.22|2.11|3.29|6.20|6.05|5.64,1586,27,37,17,nasa_power,2026-03-20
09_Paraguari,Acahay,Departamentos/09_Paraguari/Acahay,-25.9139897,-57.1142066,6.76|6.20|5.42|4.44|3.36|2.83|3.21|3.93|4.61|5.49|6.42|6.78,4.95,4.27|4.46|4.28|5.24|5.08|2.87|2.37|1.77|2.90|5.84|6.23|5.42,1544,26,36,16,nasa_power,2026-03-20
09_Paraguari,Caapucu,Departamentos/09_Paraguari/Caapucu,-26.2336162,-57.1820645,6.72|6.24|5.35|4.27|3.26|2.73|3.11|3.77|4.48|5.37|6.41|6.79,4.87,4.27|4.46|4.28|5.24|5.08|2.87|2.37|1.77|2.90|5.84|6.23|5.42,1544,26,36,16,nasa_power,2026-03-20
09_Paraguari,Caballero,Departamentos/09_Paraguari/Caballero,-25.6913743,-56.8616212,6.74|6.20|5.50|4.48|3.35|2.88|3.21|3.96|4.59|5.43|6.43|6.81,4.96,4.09|4.96|4.29|4.95|4.91|2.61|2.14|1.32|2.58|5.53|6.42|5.66,1506,26,36,16,nasa_power,2026-03-20
09_Paraguari,Carapegua,Departamentos/09_Paraguari/Carapegua,-25.767636,-57.2425331,6.76|6.20|5.42|4.44|3.36|2.83|3.21|3.93|4.61|5.49|6.42|6.78,4.95,4.23|4.53|4.39|5.24|4.61|2.63|2.15|1.51|2.68|5.45|6.16|5.56,1496,26,36,16,nasa_power,2026-03-20
09_Paraguari,Escobar,Departamentos/09_Paraguari/Escobar,-25.6735792,-57.0403827,6.76|6.20|5.42|4.44|3.36|2.83|3.21|3.93|4.61|5.49|6.42|6.78,4.95,4.09|4.96|4.29|4.95|4.91|2.61|2.14|1.32|2.58|5.53|6.42|5.66,1506,26,36,16,nasa_power,2026-03-20
09_Paraguari,General_Bernardino_Caballero,Departamentos/09_Paraguari/General_Bernardino_Caballero,-25.6913743,-56.8616212,6.74|6.20|5.50|4.48|3.35|2.88|3.21|3.96|4.59|5.43|6.43|6.81,4.96,4.09|4.96|4.29|4.95|4.91|2.61|2.14|1.32|2.58|5.53|6.42|5.66,1506,26,36,16,nasa_power,2026-03-20
09_Paraguari,La_Colmena,Departamentos/09_Paraguari/La_Colmena,-25.8856298,-56.8404292,6.74|6.20|5.50|4.48|3.35|2.88|3.21|3.96|4.59|5.43|6.43|6.81,4.96,4.27|4.46|4.28|5.24|5.08|2.87|2.37|1.77|2.90|5.84|6.23|5.42,1544,26,36,16,nasa_power,2026-03-20
09_Paraguari,Mbuyapey,Departamentos/09_Paraguari/Mbuyapey,-26.2205658,-56.7572497,6.71|6.20|5.39|4.34|3.26|2.77|3.10|3.79|4.42|5.34|6.39|6.76,4.87,4.27|4.46|4.28|5.24|5.08|2.87|2.37|1.77|2.90|5.84|6.23|5.42,1544,26,36,16,nasa_power,2026-03-20
09_Paraguari,Paraguari,Departamentos/09_Paraguari/Paraguari,-25.6203507,-57.1505142,6.76|6.20|5.42|4.44|3.36|2.83|3.21|3.93|4.61|5.49|6.42|6.78,4.95,4.09|4.96|4.29|4.95|4.91|2.61|2.14|1.32|2.58|5.53|6.42|5.66,1506,26,36,16,nasa_power,2026-03-20
09_Paraguari,Pirayu,Departamentos/09_Paraguari/Pirayu,-25.48,-57.23,6.76|6.20|5.42|4.44|3.36|2.83|3.21|3.93|4.61|5.49|6.42|6.78,4.95,4.06|4.92|4.37|4.97|4.62|2.47|2.03|1.23|2.44|5.27|6.35|5.78,1477,25,35,15,nasa_power,2026-03-20
09_Paraguari,Quiindy,Departamentos/09_Paraguari/Quiindy,-25.9757816,-57.2324307,6.76|6.20|5.42|4.44|3.36|2.83|3.21|3.93|4.61|5.49|6.42|6.78,4.95,4.23|4.53|4.39|5.24|4.61|2.63|2.15|1.51|2.68|5.45|6.16|5.56,1496,26,36,16,nasa_power,2026-03-20
09_Paraguari,Quyquyho,Departamentos/09_Paraguari/Quyquyho,-26.2316581,-56.9888688,6.71|6.20|5.39|4.34|3.26|2.77|3.10|3.79|4.42|5.34|6.39|6.76,4.87,4.27|4.46|4.28|5.24|5.08|2.87|2.37|1.77|2.90|5.84|6.23|5.42,1544,26,36,16,nasa_power,2026-03-20
09_Paraguari,San_Roque_Gonzalez,Departamentos/09_Paraguari/San_Roque_Gonzalez,-25.8814105,-57.2891135,6.76|6.20|5.42|4.44|3.36|2.83|3.21|3.93|4.61|5.49|6.42|6.78,4.95,4.23|4.53|4.39|5.24|4.61|2.63|2.15|1.51|2.68|5.45|6.16|5.56,1496,26,36,16,nasa_power,2026-03-20
09_Paraguari,Sapucai,Departamentos/09_Paraguari/Sapucai,-25.66667,-56.91667,6.74|6.20|5.50|4.48|3.35|2.88|3.21|3.96|4.59|5.43|6.43|6.81,4.96,4.09|4.96|4.29|4.95|4.91|2.61|2.14|1.32|2.58|5.53|6.42|5.66,1506,26,36,16,nasa_power,2026-03-20
09_Paraguari,Tebicuary_mi,Departamentos/09_Paraguari/Tebicuary_mi,-25.7789491,-56.6472343,6.74|6.20|5.50|4.48|3.35|2.88|3.21|3.96|4.59|5.43|6.43|6.81,4.96,4.27|4.46|4.28|5.24|5.08|2.87|2.37|1.77|2.90|5.84|6.23|5.42,1544,26,36,16,nasa_power,2026-03-20
09_Paraguari,Yaguarun,Departamentos/09_Paraguari/Yaguarun,-26.0,-57.0,6.74|6.20|5.50|4.48|3.35|2.88|3.21|3.96|4.59|5.43|6.43|6.81,4.96,4.27|4.46|4.28|5.24|5.08|2.87|2.37|1.77|2.90|5.84|6.23|5.42,1544,26,36,16,nasa_power,2026-03-20
09_Paraguari,Ybycui,Departamentos/09_Paraguari/Ybycui,-26.1316891,-56.8429718,6.71|6.20|5.39|4.34|3.26|2.77|3.10|3.79|4.42|5.34|6.39|6.76,4.87,4.27|4.46|4.28|5.24|5.08|2.87|2.37|1.77|2.90|5.84|6.23|5.42,1544,26,36,16,nasa_power,2026-03-20
09_Paraguari,Ybytimi,Departamentos/09_Paraguari/Ybytimi,-25.2721958,-57.5636465,6.76|6.20|5.42|4.44|3.36|2.83|3.21|3.93|4.61|5.49|6.42|6.78,4.95,4.06|4.92|4.37|4.97|4.62|2.47|2.03|1.23|2.44|5.27|6.35|5.78,1477,25,35,15,nasa_power,2026-03-20
10_Alto_Parana,Ciudad_del_Este,Departamentos/10_Alto_Parana/Ciudad_del_Este,-25.516666666,-54.616666666,6.52|5.97|5.45|4.50|3.33|2.93|3.24|4.04|4.60|5.28|6.33|6.55,4.9,4.73|4.56|3.78|4.14|5.26|3.59|2.75|2.26|4.02|6.80|5.29|5.76,1611,26,36,16,nasa_power,2026-03-20
10_Alto_Parana,Doctor_Raul_Pena,Departamentos/10_Alto_Parana/Doctor_Raul_Pena,-25.5544822,-54.6134886,6.52|5.97|5.45|4.50|3.33|2.93|3.24|4.04|4.60|5.28|6.33|6.55,4.9,4.73|4.56|3.78|4.14|5.26|3.59|2.75|2.26|4.02|6.80|5.29|5.76,1611,26,36,16,nasa_power,2026-03-20
10_Alto_Parana,Domingo_Martinez_de_Irala,Departamentos/10_Alto_Parana/Domingo_Martinez_de_Irala,-25.9104961,-54.6290891,6.52|5.97|5.45|4.50|3.33|2.93|3.24|4.04|4.60|5.28|6.33|6.55,4.9,4.73|4.55|4.13|4.73|5.14|3.88|2.94|2.43|4.11|6.96|5.47|5.92,1674,26,36,16,nasa_power,2026-03-20
10_Alto_Parana,Hernandarias,Departamentos/10_Alto_Parana/Hernandarias,-25.4041794,-54.6320387,6.52|5.97|5.45|4.50|3.33|2.93|3.24|4.04|4.60|5.28|6.33|6.55,4.9,4.73|4.56|3.78|4.14|5.26|3.59|2.75|2.26|4.02|6.80|5.29|5.76,1611,25,35,15,nasa_power,2026-03-20
10_Alto_Parana,Iruna,Departamentos/10_Alto_Parana/Iruna,-26.1118133,-55.056369,6.56|6.06|5.32|4.33|3.21|2.76|3.08|3.81|4.39|5.25|6.31|6.67,4.81,4.70|4.56|4.19|5.14|5.15|3.70|2.82|2.22|3.78|6.53|5.72|5.76,1652,26,36,16,nasa_power,2026-03-20
10_Alto_Parana,Itakyry,Departamentos/10_Alto_Parana/Itakyry,-25.483333333,-57.35,6.76|6.20|5.42|4.44|3.36|2.83|3.21|3.93|4.61|5.49|6.42|6.78,4.95,4.06|4.92|4.37|4.97|4.62|2.47|2.03|1.23|2.44|5.27|6.35|5.78,1477,25,35,15,nasa_power,2026-03-20
10_Alto_Parana,Juan_Emilio_OLeary,Departamentos/10_Alto_Parana/Juan_Emilio_OLeary,-25.55,-55.1167,6.58|6.08|5.45|4.47|3.30|2.90|3.20|3.96|4.53|5.31|6.35|6.66,4.9,4.69|4.62|4.02|4.64|5.24|3.49|2.66|2.07|3.78|6.38|5.62|5.63,1608,26,36,16,nasa_power,2026-03-20
10_Alto_Parana,Juan_Leon_Mallorquin,Departamentos/10_Alto_Parana/Juan_Leon_Mallorquin,-25.4291628,-55.25452,6.58|6.08|5.45|4.47|3.30|2.90|3.20|3.96|4.53|5.31|6.35|6.66,4.9,4.69|4.62|4.02|4.64|5.24|3.49|2.66|2.07|3.78|6.38|5.62|5.63,1608,25,35,15,nasa_power,2026-03-20
10_Alto_Parana,Los_Cedrales,Departamentos/10_Alto_Parana/Los_Cedrales,-25.6584029,-54.7204891,6.52|5.97|5.45|4.50|3.33|2.93|3.24|4.04|4.60|5.28|6.33|6.55,4.9,4.69|4.62|4.02|4.64|5.24|3.49|2.66|2.07|3.78|6.38|5.62|5.63,1608,26,36,16,nasa_power,2026-03-20
10_Alto_Parana,Mbaracayu,Departamentos/10_Alto_Parana/Mbaracayu,-25.0282763,-54.824091,6.52|5.97|5.45|4.50|3.33|2.93|3.24|4.04|4.60|5.28|6.33|6.55,4.9,4.62|4.69|3.84|4.42|5.24|3.29|2.50|2.00|3.66|6.24|5.69|5.50,1573,25,35,15,nasa_power,2026-03-20
10_Alto_Parana,Minga_Guazu,Departamentos/10_Alto_Parana/Minga_Guazu,-25.4910326,-54.767743,6.52|5.97|5.45|4.50|3.33|2.93|3.24|4.04|4.60|5.28|6.33|6.55,4.9,4.69|4.62|4.02|4.64|5.24|3.49|2.66|2.07|3.78|6.38|5.62|5.63,1608,25,35,15,nasa_power,2026-03-20
10_Alto_Parana,Minga_Pora,Departamentos/10_Alto_Parana/Minga_Pora,-24.8760322,-54.9352852,6.48|5.93|5.56|4.60|3.42|3.02|3.35|4.16|4.70|5.31|6.29|6.46,4.94,4.62|4.69|3.84|4.42|5.24|3.29|2.50|2.00|3.66|6.24|5.69|5.50,1573,25,35,15,nasa_power,2026-03-20
10_Alto_Parana,Nacunday,Departamentos/10_Alto_Parana/Nacunday,-25.9798069,-54.6831659,6.52|5.97|5.45|4.50|3.33|2.93|3.24|4.04|4.60|5.28|6.33|6.55,4.9,4.73|4.55|4.13|4.73|5.14|3.88|2.94|2.43|4.11|6.96|5.47|5.92,1674,26,36,16,nasa_power,2026-03-20
10_Alto_Parana,Naranjal,Departamentos/10_Alto_Parana/Naranjal,-25.9739991,-55.1901109,6.58|6.08|5.45|4.47|3.30|2.90|3.20|3.96|4.53|5.31|6.35|6.66,4.9,4.70|4.56|4.19|5.14|5.15|3.70|2.82|2.22|3.78|6.53|5.72|5.76,1652,26,36,16,nasa_power,2026-03-20
10_Alto_Parana,Presidente_Franco,Departamentos/10_Alto_Parana/Presidente_Franco,-25.5651763,-54.6156341,6.52|5.97|5.45|4.50|3.33|2.93|3.24|4.04|4.60|5.28|6.33|6.55,4.9,4.73|4.56|3.78|4.14|5.26|3.59|2.75|2.26|4.02|6.80|5.29|5.76,1611,26,36,16,nasa_power,2026-03-20
10_Alto_Parana,San_Alberto,Departamentos/10_Alto_Parana/San_Alberto,-24.9765429,-54.9116344,6.48|5.93|5.56|4.60|3.42|3.02|3.35|4.16|4.70|5.31|6.29|6.46,4.94,4.62|4.69|3.84|4.42|5.24|3.29|2.50|2.00|3.66|6.24|5.69|5.50,1573,25,35,15,nasa_power,2026-03-20
10_Alto_Parana,San_Cristobal,Departamentos/10_Alto_Parana/San_Cristobal,-25.7780452,-55.3940964,6.58|6.08|5.45|4.47|3.30|2.90|3.20|3.96|4.53|5.31|6.35|6.66,4.9,4.57|4.51|4.21|5.38|5.35|3.40|2.68|2.06|3.40|6.23|6.12|5.46,1625,26,36,16,nasa_power,2026-03-20
10_Alto_Parana,Santa_Fe_del_Parana,Departamentos/10_Alto_Parana/Santa_Fe_del_Parana,-25.2269711,-54.7032888,6.52|5.97|5.45|4.50|3.33|2.93|3.24|4.04|4.60|5.28|6.33|6.55,4.9,4.62|4.69|3.84|4.42|5.24|3.29|2.50|2.00|3.66|6.24|5.69|5.50,1573,25,35,15,nasa_power,2026-03-20
10_Alto_Parana,Santa_Rita,Departamentos/10_Alto_Parana/Santa_Rita,-25.8004863,-55.0934459,6.58|6.08|5.45|4.47|3.30|2.90|3.20|3.96|4.53|5.31|6.35|6.66,4.9,4.70|4.56|4.19|5.14|5.15|3.70|2.82|2.22|3.78|6.53|5.72|5.76,1652,26,36,16,nasa_power,2026-03-20
10_Alto_Parana,Santa_Rosa_del_Monday,Departamentos/10_Alto_Parana/Santa_Rosa_del_Monday,-25.8143908,-54.9049752,6.52|5.97|5.45|4.50|3.33|2.93|3.24|4.04|4.60|5.28|6.33|6.55,4.9,4.70|4.56|4.19|5.14|5.15|3.70|2.82|2.22|3.78|6.53|5.72|5.76,1652,26,36,16,nasa_power,2026-03-20
10_Alto_Parana,Tavapy,Departamentos/10_Alto_Parana/Tavapy,-25.663704,-54.9958621,6.52|5.97|5.45|4.50|3.33|2.93|3.24|4.04|4.60|5.28|6.33|6.55,4.9,4.69|4.62|4.02|4.64|5.24|3.49|2.66|2.07|3.78|6.38|5.62|5.63,1608,26,36,16,nasa_power,2026-03-20
10_Alto_Parana,Yguazu,Departamentos/10_Alto_Parana/Yguazu,-25.4634017,-55.0011501,6.58|6.08|5.45|4.47|3.30|2.90|3.20|3.96|4.53|5.31|6.35|6.66,4.9,4.69|4.62|4.02|4.64|5.24|3.49|2.66|2.07|3.78|6.38|5.62|5.63,1608,25,35,15,nasa_power,2026-03-20
11_Central,Aregua,Departamentos/11_Central/Aregua,-25.3,-57.416944,6.76|6.20|5.42|4.44|3.36|2.83|3.21|3.93|4.61|5.49|6.42|6.78,4.95,4.06|4.92|4.37|4.97|4.62|2.47|2.03|1.23|2.44|5.27|6.35|5.78,1477,25,35,15,nasa_power,2026-03-20
11_Central,Capiata,Departamentos/11_Central/Capiata,-25.3548171,-57.4427315,6.76|6.20|5.42|4.44|3.36|2.83|3.21|3.93|4.61|5.49|6.42|6.78,4.95,4.06|4.92|4.37|4.97|4.62|2.47|2.03|1.23|2.44|5.27|6.35|5.78,1477,25,35,15,nasa_power,2026-03-20
11_Central,Fernando_de_la_Mora,Departamentos/11_Central/Fernando_de_la_Mora,-25.3281673,-57.5521492,6.76|6.20|5.42|4.44|3.36|2.83|3.21|3.93|4.61|5.49|6.42|6.78,4.95,4.06|4.92|4.37|4.97|4.62|2.47|2.03|1.23|2.44|5.27|6.35|5.78,1477,25,35,15,nasa_power,2026-03-20
11_Central,Guarambare,Departamentos/11_Central/Guarambare,-25.4920858,-57.4558665,6.76|6.20|5.42|4.44|3.36|2.83|3.21|3.93|4.61|5.49|6.42|6.78,4.95,4.06|4.92|4.37|4.97|4.62|2.47|2.03|1.23|2.44|5.27|6.35|5.78,1477,25,35,15,nasa_power,2026-03-20
11_Central,Ita,Departamentos/11_Central/Ita,-25.483333333,-57.35,6.76|6.20|5.42|4.44|3.36|2.83|3.21|3.93|4.61|5.49|6.42|6.78,4.95,4.06|4.92|4.37|4.97|4.62|2.47|2.03|1.23|2.44|5.27|6.35|5.78,1477,25,35,15,nasa_power,2026-03-20
11_Central,Itaugua,Departamentos/11_Central/Itaugua,-25.483333333,-57.35,6.76|6.20|5.42|4.44|3.36|2.83|3.21|3.93|4.61|5.49|6.42|6.78,4.95,4.06|4.92|4.37|4.97|4.62|2.47|2.03|1.23|2.44|5.27|6.35|5.78,1477,25,35,15,nasa_power,2026-03-20
11_Central,J_Augusto_Saldivar,Departamentos/11_Central/J_Augusto_Saldivar,-25.4439,-57.4430461,6.76|6.20|5.42|4.44|3.36|2.83|3.21|3.93|4.61|5.49|6.42|6.78,4.95,4.06|4.92|4.37|4.97|4.62|2.47|2.03|1.23|2.44|5.27|6.35|5.78,1477,25,35,15,nasa_power,2026-03-20
11_Central,Lambare,Departamentos/11_Central/Lambare,-25.3455354,-57.6261456,6.76|6.20|5.42|4.44|3.36|2.83|3.21|3.93|4.61|5.49|6.42|6.78,4.95,4.06|4.92|4.37|4.97|4.62|2.47|2.03|1.23|2.44|5.27|6.35|5.78,1477,25,35,15,nasa_power,2026-03-20
11_Central,Limpio,Departamentos/11_Central/Limpio,-25.1728768,-57.4778284,6.76|6.20|5.42|4.44|3.36|2.83|3.21|3.93|4.61|5.49|6.42|6.78,4.95,3.98|5.28|4.20|4.77|4.60|2.36|1.90|1.08|2.32|5.20|6.56|5.87,1465,25,35,15,nasa_power,2026-03-20
11_Central,Luque,Departamentos/11_Central/Luque,-25.2665417,-57.4926928,6.76|6.20|5.42|4.44|3.36|2.83|3.21|3.93|4.61|5.49|6.42|6.78,4.95,4.06|4.92|4.37|4.97|4.62|2.47|2.03|1.23|2.44|5.27|6.35|5.78,1477,25,35,15,nasa_power,2026-03-20
11_Central,Mariano_Roque_Alonso,Departamentos/11_Central/Mariano_Roque_Alonso,-25.2118123,-57.5346458,6.76|6.20|5.42|4.44|3.36|2.83|3.21|3.93|4.61|5.49|6.42|6.78,4.95,3.98|5.28|4.20|4.77|4.60|2.36|1.90|1.08|2.32|5.20|6.56|5.87,1465,25,35,15,nasa_power,2026-03-20
11_Central,Nemby,Departamentos/11_Central/Nemby,-25.3924542,-57.5471112,6.76|6.20|5.42|4.44|3.36|2.83|3.21|3.93|4.61|5.49|6.42|6.78,4.95,4.06|4.92|4.37|4.97|4.62|2.47|2.03|1.23|2.44|5.27|6.35|5.78,1477,25,35,15,nasa_power,2026-03-20
11_Central,Nueva_Italia,Departamentos/11_Central/Nueva_Italia,-25.6120904,-57.4676865,6.76|6.20|5.42|4.44|3.36|2.83|3.21|3.93|4.61|5.49|6.42|6.78,4.95,4.06|4.92|4.37|4.97|4.62|2.47|2.03|1.23|2.44|5.27|6.35|5.78,1477,26,36,16,nasa_power,2026-03-20
11_Central,San_Antonio,Departamentos/11_Central/San_Antonio,-25.379722222,-57.609722222,6.76|6.20|5.42|4.44|3.36|2.83|3.21|3.93|4.61|5.49|6.42|6.78,4.95,4.06|4.92|4.37|4.97|4.62|2.47|2.03|1.23|2.44|5.27|6.35|5.78,1477,25,35,15,nasa_power,2026-03-20
11_Central,San_Lorenzo,Departamentos/11_Central/San_Lorenzo,-25.343055555,-57.509444444,6.76|6.20|5.42|4.44|3.36|2.83|3.21|3.93|4.61|5.49|6.42|6.78,4.95,4.06|4.92|4.37|4.97|4.62|2.47|2.03|1.23|2.44|5.27|6.35|5.78,1477,25,35,15,nasa_power,2026-03-20
11_Central,Villa_Elisa,Departamentos/11_Central/Villa_Elisa,-25.3715212,-57.5898279,6.76|6.20|5.42|4.44|3.36|2.83|3.21|3.93|4.61|5.49|6.42|6.78,4.95,4.06|4.92|4.37|4.97|4.62|2.47|2.03|1.23|2.44|5.27|6.35|5.78,1477,25,35,15,nasa_power,2026-03-20
11_Central,Villeta,Departamentos/11_Central/Villeta,-25.5045192,-57.5693789,6.76|6.20|5.42|4.44|3.36|2.83|3.21|3.93|4.61|5.49|6.42|6.78,4.95,4.06|4.92|4.37|4.97|4.62|2.47|2.03|1.23|2.44|5.27|6.35|5.78,1477,26,36,16,nasa_power,2026-03-20
11_Central,Ypacarai,Departamentos/11_Central/Ypacarai,-25.4046805,-57.2857757,6.76|6.20|5.42|4.44|3.36|2.83|3.21|3.93|4.61|5.49|6.42|6.78,4.95,4.06|4.92|4.37|4.97|4.62|2.47|2.03|1.23|2.44|5.27|6.35|5.78,1477,25,35,15,nasa_power,2026-03-20
11_Central,Ypane,Departamentos/11_Central/Ypane,-25.45,-57.53,6.76|6.20|5.42|4.44|3.36|2.83|3.21|3.93|4.61|5.49|6.42|6.78,4.95,4.06|4.92|4.37|4.97|4.62|2.47|2.03|1.23|2.44|5.27|6.35|5.78,1477,25,35,15,nasa_power,2026-03-20
12_Neembucu,Alberdi,Departamentos/12_Neembucu/Alberdi,-26.1854132,-58.142486,6.76|6.22|5.34|4.20|3.30|2.73|3.14|3.88|4.59|5.48|6.49|6.76,4.91,4.34|4.50|4.76|5.32|3.74|2.17|1.76|1.12|2.18|4.61|5.82|5.73,1402,26,36,16,nasa_power,2026-03-20
12_Neembucu,Cerrito,Departamentos/12_Neembucu/Cerrito,-27.3393701,-57.6397704,6.76|6.25|5.34|4.21|3.22|2.68|3.07|3.76|4.52|5.40|6.52|6.87,4.89,4.84|4.28|4.50|5.68|3.87|2.90|1.99|1.88|2.94|5.81|6.06|5.47,1529,27,37,17,nasa_power,2026-03-20
12_Neembucu,Desmochados,Departamentos/12_Neembucu/Desmochados,-27.121115,-58.0879682,6.80|6.25|5.36|4.20|3.26|2.69|3.10|3.85|4.63|5.47|6.59|6.87,4.92,4.96|4.29|4.68|5.56|3.49|2.37|1.55|1.29|2.25|5.02|5.91|5.24,1419,27,37,17,nasa_power,2026-03-20
12_Neembucu,General_Diaz,Departamentos/12_Neembucu/General_Diaz,-26.8539807,-58.3110777,6.76|6.22|5.34|4.20|3.30|2.73|3.14|3.88|4.59|5.48|6.49|6.76,4.91,4.96|4.29|4.68|5.56|3.49|2.37|1.55|1.29|2.25|5.02|5.91|5.24,1419,27,37,17,nasa_power,2026-03-20
12_Neembucu,Guazu_Cua,Departamentos/12_Neembucu/Guazu_Cua,-26.8826508,-57.9659088,6.72|6.24|5.35|4.27|3.26|2.73|3.11|3.77|4.48|5.37|6.41|6.79,4.87,4.96|4.29|4.68|5.56|3.49|2.37|1.55|1.29|2.25|5.02|5.91|5.24,1419,27,37,17,nasa_power,2026-03-20
12_Neembucu,Humaita,Departamentos/12_Neembucu/Humaita,-25.483333333,-57.35,6.76|6.20|5.42|4.44|3.36|2.83|3.21|3.93|4.61|5.49|6.42|6.78,4.95,4.06|4.92|4.37|4.97|4.62|2.47|2.03|1.23|2.44|5.27|6.35|5.78,1477,25,35,15,nasa_power,2026-03-20
12_Neembucu,Isla_Umbu,Departamentos/12_Neembucu/Isla_Umbu,-26.9834127,-58.2725618,6.76|6.22|5.34|4.20|3.30|2.73|3.14|3.88|4.59|5.48|6.49|6.76,4.91,4.96|4.29|4.68|5.56|3.49|2.37|1.55|1.29|2.25|5.02|5.91|5.24,1419,27,37,17,nasa_power,2026-03-20
12_Neembucu,Laureles,Departamentos/12_Neembucu/Laureles,-27.2504746,-57.4581675,6.76|6.25|5.34|4.21|3.22|2.68|3.07|3.76|4.52|5.40|6.52|6.87,4.89,4.84|4.28|4.50|5.68|3.87|2.90|1.99|1.88|2.94|5.81|6.06|5.47,1529,27,37,17,nasa_power,2026-03-20
12_Neembucu,Mayor_Martinez,Departamentos/12_Neembucu/Mayor_Martinez,-27.1464309,-58.2291864,6.80|6.25|5.36|4.20|3.26|2.69|3.10|3.85|4.63|5.47|6.59|6.87,4.92,4.96|4.29|4.68|5.56|3.49|2.37|1.55|1.29|2.25|5.02|5.91|5.24,1419,27,37,17,nasa_power,2026-03-20
12_Neembucu,Paso_de_Patria,Departamentos/12_Neembucu/Paso_de_Patria,-27.2454211,-58.5454485,6.80|6.25|5.36|4.20|3.26|2.69|3.10|3.85|4.63|5.47|6.59|6.87,4.92,5.03|4.28|4.72|5.51|3.36|2.31|1.46|1.25|2.15|4.91|5.83|5.18,1400,27,37,17,nasa_power,2026-03-20
12_Neembucu,Pilar,Departamentos/12_Neembucu/Pilar,-26.856944444,-58.303888888,6.76|6.22|5.34|4.20|3.30|2.73|3.14|3.88|4.59|5.48|6.49|6.76,4.91,4.96|4.29|4.68|5.56|3.49|2.37|1.55|1.29|2.25|5.02|5.91|5.24,1419,27,37,17,nasa_power,2026-03-20
12_Neembucu,San_Juan_del_Neembucu,Departamentos/12_Neembucu/San_Juan_del_Neembucu,-26.8601823,-58.3011842,6.76|6.22|5.34|4.20|3.30|2.73|3.14|3.88|4.59|5.48|6.49|6.76,4.91,4.96|4.29|4.68|5.56|3.49|2.37|1.55|1.29|2.25|5.02|5.91|5.24,1419,27,37,17,nasa_power,2026-03-20
12_Neembucu,Tacuaras,Departamentos/12_Neembucu/Tacuaras,-26.8183687,-57.982401,6.72|6.24|5.35|4.27|3.26|2.73|3.11|3.77|4.48|5.37|6.41|6.79,4.87,4.96|4.29|4.68|5.56|3.49|2.37|1.55|1.29|2.25|5.02|5.91|5.24,1419,27,37,17,nasa_power,2026-03-20
12_Neembucu,Villa_Franca,Departamentos/12_Neembucu/Villa_Franca,-26.3148808,-58.1479754,6.76|6.22|5.34|4.20|3.30|2.73|3.14|3.88|4.59|5.48|6.49|6.76,4.91,4.56|4.29|4.70|5.51|3.72|2.26|1.74|1.23|2.30|4.92|5.82|5.47,1416,26,36,16,nasa_power,2026-03-20
12_Neembucu,Villa_Oliva,Departamentos/12_Neembucu/Villa_Oliva,-26.0161506,-57.8575555,6.72|6.24|5.35|4.27|3.26|2.73|3.11|3.77|4.48|5.37|6.41|6.79,4.87,4.34|4.50|4.76|5.32|3.74|2.17|1.76|1.12|2.18|4.61|5.82|5.73,1402,26,36,16,nasa_power,2026-03-20
12_Neembucu,Villalbin,Departamentos/12_Neembucu/Villalbin,-27.1386662,-57.9302857,6.76|6.25|5.34|4.21|3.22|2.68|3.07|3.76|4.52|5.40|6.52|6.87,4.89,4.96|4.29|4.68|5.56|3.49|2.37|1.55|1.29|2.25|5.02|5.91|5.24,1419,27,37,17,nasa_power,2026-03-20
13_Amambay,Bella_Vista,Departamentos/13_Amambay/Bella_Vista,-22.1231581,-56.5133016,6.44|5.92|5.66|4.74|3.62|3.27|3.51|4.32|4.78|5.46|6.22|6.37,5.03,5.35|5.70|3.40|3.60|3.52|2.15|1.30|1.16|2.46|4.28|5.31|4.98,1315,22,32,12,nasa_power,2026-03-20
13_Amambay,Capitan_Bado,Departamentos/13_Amambay/Capitan_Bado,-25.483333333,-57.35,6.76|6.20|5.42|4.44|3.36|2.83|3.21|3.93|4.61|5.49|6.42|6.78,4.95,4.06|4.92|4.37|4.97|4.62|2.47|2.03|1.23|2.44|5.27|6.35|5.78,1477,25,35,15,nasa_power,2026-03-20
13_Amambay,Cerro_Cora,Departamentos/13_Amambay/Cerro_Cora,-23.2706693,-55.541544,6.41|5.92|5.60|4.65|3.53|3.14|3.44|4.20|4.70|5.36|6.22|6.44,4.97,5.14|6.24|3.82|4.47|4.26|2.75|1.79|1.57|3.06|5.51|6.27|5.78,1542,23,33,13,nasa_power,2026-03-20
13_Amambay,Karapai,Departamentos/13_Amambay/Karapai,-23.489011,-56.031763,6.60|6.02|5.62|4.65|3.48|3.07|3.35|4.15|4.72|5.46|6.29|6.53,4.99,5.02|6.05|3.88|4.59|4.15|2.69|1.75|1.40|2.84|5.35|6.49|5.50,1513,23,33,13,nasa_power,2026-03-20
13_Amambay,Pedro_Juan_Caballero,Departamentos/13_Amambay/Pedro_Juan_Caballero,-22.566666666,-55.716666666,6.29|5.83|5.59|4.73|3.70|3.35|3.60|4.40|4.82|5.37|6.08|6.29,5.0,5.87|6.55|3.75|4.08|3.88|2.55|1.52|1.48|2.84|4.85|5.66|5.69,1483,23,33,13,nasa_power,2026-03-20
13_Amambay,Zanja_Pyta,Departamentos/13_Amambay/Zanja_Pyta,-22.6298609,-55.6319262,6.29|5.83|5.59|4.73|3.70|3.35|3.60|4.40|4.82|5.37|6.08|6.29,5.0,5.87|6.55|3.75|4.08|3.88|2.55|1.52|1.48|2.84|4.85|5.66|5.69,1483,23,33,13,nasa_power,2026-03-20
14_Canindeyu,Corpus_Christi,Departamentos/14_Canindeyu/Corpus_Christi,-24.078626,-54.9399763,6.48|5.93|5.56|4.60|3.42|3.02|3.35|4.16|4.70|5.31|6.29|6.46,4.94,4.36|5.07|3.55|4.11|4.51|2.78|1.93|2.02|3.20|5.69|5.92|5.91,1493,24,34,14,nasa_power,2026-03-20
14_Canindeyu,Curuguaty,Departamentos/14_Canindeyu/Curuguaty,-24.4694166,-55.6945253,6.56|6.04|5.59|4.57|3.37|2.97|3.27|4.04|4.58|5.29|6.28|6.54,4.92,4.13|5.16|3.82|4.73|5.23|2.97|2.13|1.64|3.36|5.84|6.19|5.51,1544,24,34,14,nasa_power,2026-03-20
14_Canindeyu,General_Caballero_Alvarez,Departamentos/14_Canindeyu/General_Caballero_Alvarez,-24.1556231,-54.6656297,6.48|5.93|5.56|4.60|3.42|3.02|3.35|4.16|4.70|5.31|6.29|6.46,4.94,4.42|4.71|3.28|3.68|4.50|2.74|2.08|2.26|3.10|5.70|5.63|6.07,1466,24,34,14,nasa_power,2026-03-20
14_Canindeyu,Itanara,Departamentos/14_Canindeyu/Itanara,-23.7519813,-55.4645214,6.41|5.92|5.60|4.65|3.53|3.14|3.44|4.20|4.70|5.36|6.22|6.44,4.97,4.32|5.58|3.84|4.49|4.64|2.82|1.90|1.71|3.24|5.67|6.27|5.62,1525,24,34,14,nasa_power,2026-03-20
14_Canindeyu,Katuete,Departamentos/14_Canindeyu/Katuete,-24.3088036,-54.7482671,6.48|5.93|5.56|4.60|3.42|3.02|3.35|4.16|4.70|5.31|6.29|6.46,4.94,4.39|4.77|3.64|4.30|4.93|2.99|2.20|2.04|3.42|6.00|5.90|5.67,1530,24,34,14,nasa_power,2026-03-20
14_Canindeyu,La_Paloma,Departamentos/14_Canindeyu/La_Paloma,-24.1324273,-54.612178,6.48|5.93|5.56|4.60|3.42|3.02|3.35|4.16|4.70|5.31|6.29|6.46,4.94,4.42|4.71|3.28|3.68|4.50|2.74|2.08|2.26|3.10|5.70|5.63|6.07,1466,24,34,14,nasa_power,2026-03-20
14_Canindeyu,Laurel,Departamentos/14_Canindeyu/Laurel,-24.5635433,-54.9586833,6.48|5.93|5.56|4.60|3.42|3.02|3.35|4.16|4.70|5.31|6.29|6.46,4.94,4.39|4.77|3.64|4.30|4.93|2.99|2.20|2.04|3.42|6.00|5.90|5.67,1530,25,35,15,nasa_power,2026-03-20
14_Canindeyu,Maracana,Departamentos/14_Canindeyu/Maracana,-24.1899734,-56.1197791,6.73|6.14|5.58|4.61|3.40|2.96|3.24|4.04|4.62|5.38|6.37|6.67,4.98,4.30|5.59|3.83|4.68|4.70|2.79|1.94|1.42|3.00|5.56|6.44|5.43,1512,24,34,14,nasa_power,2026-03-20
14_Canindeyu,Nueva_Esperanza,Departamentos/14_Canindeyu/Nueva_Esperanza,-24.5060025,-54.8575842,6.48|5.93|5.56|4.60|3.42|3.02|3.35|4.16|4.70|5.31|6.29|6.46,4.94,4.39|4.77|3.64|4.30|4.93|2.99|2.20|2.04|3.42|6.00|5.90|5.67,1530,25,35,15,nasa_power,2026-03-20
14_Canindeyu,Puerto_Adela,Departamentos/14_Canindeyu/Puerto_Adela,-24.4844244,-54.3856984,6.48|5.93|5.56|4.60|3.42|3.02|3.35|4.16|4.70|5.31|6.29|6.46,4.94,4.62|4.70|3.42|3.93|4.83|3.04|2.33|2.32|3.37|6.07|5.67|5.60,1519,24,34,14,nasa_power,2026-03-20
14_Canindeyu,Salto_del_Guaira,Departamentos/14_Canindeyu/Salto_del_Guaira,-24.056639,-54.3342067,6.48|5.93|5.56|4.60|3.42|3.02|3.35|4.16|4.70|5.31|6.29|6.46,4.94,4.42|4.71|3.28|3.68|4.50|2.74|2.08|2.26|3.10|5.70|5.63|6.07,1466,24,34,14,nasa_power,2026-03-20
14_Canindeyu,Villa_Ygatimi,Departamentos/14_Canindeyu/Villa_Ygatimi,-24.1228762,-55.6447411,6.56|6.04|5.59|4.57|3.37|2.97|3.27|4.04|4.58|5.29|6.28|6.54,4.92,4.32|5.58|3.84|4.49|4.64|2.82|1.90|1.71|3.24|5.67|6.27|5.62,1525,24,34,14,nasa_power,2026-03-20
14_Canindeyu,Yasy_Cany,Departamentos/14_Canindeyu/Yasy_Cany,-24.5236147,-55.8829147,6.56|6.04|5.59|4.57|3.37|2.97|3.27|4.04|4.58|5.29|6.28|6.54,4.92,4.13|5.16|3.82|4.73|5.23|2.97|2.13|1.64|3.36|5.84|6.19|5.51,1544,25,35,15,nasa_power,2026-03-20
14_Canindeyu,Yby_Pyta,Departamentos/14_Canindeyu/Yby_Pyta,-24.348753,-55.3866594,6.56|6.04|5.59|4.57|3.37|2.97|3.27|4.04|4.58|5.29|6.28|6.54,4.92,4.13|5.16|3.82|4.73|5.23|2.97|2.13|1.64|3.36|5.84|6.19|5.51,1544,24,34,14,nasa_power,2026-03-20
14_Canindeyu,Ybyrarovana,Departamentos/14_Canindeyu/Ybyrarovana,-24.3667,-55.0833,6.56|6.04|5.59|4.57|3.37|2.97|3.27|4.04|4.58|5.29|6.28|6.54,4.92,4.39|4.77|3.64|4.30|4.93|2.99|2.20|2.04|3.42|6.00|5.90|5.67,1530,24,34,14,nasa_power,2026-03-20
14_Canindeyu,Ypejhu,Departamentos/14_Canindeyu/Ypejhu,-23.888163,-55.4411803,6.41|5.92|5.60|4.65|3.53|3.14|3.44|4.20|4.70|5.36|6.22|6.44,4.97,4.32|5.58|3.84|4.49|4.64|2.82|1.90|1.71|3.24|5.67|6.27|5.62,1525,24,34,14,nasa_power,2026-03-20
15_Presidente_Hayes,Benjamin_Aceval,Departamentos/15_Presidente_Hayes/Benjamin_Aceval,-24.9947234,-57.5524442,6.64|6.12|5.48|4.54|3.38|2.87|3.21|3.93|4.62|5.45|6.37|6.67,4.94,3.98|5.28|4.20|4.77|4.60|2.36|1.90|1.08|2.32|5.20|6.56|5.87,1465,25,35,15,nasa_power,2026-03-20
15_Presidente_Hayes,Campo_Aceval,Departamentos/15_Presidente_Hayes/Campo_Aceval,-23.2010594,-59.7669554,6.68|6.08|5.46|4.44|3.41|2.94|3.33|4.15|4.84|5.56|6.36|6.59,4.99,3.34|4.32|3.54|2.64|1.88|0.70|0.51|0.36|0.63|2.24|3.24|3.69,825,23,33,13,nasa_power,2026-03-20
15_Presidente_Hayes,General_Bruguez,Departamentos/15_Presidente_Hayes/General_Bruguez,-25.0968042,-57.5274809,6.76|6.20|5.42|4.44|3.36|2.83|3.21|3.93|4.61|5.49|6.42|6.78,4.95,3.98|5.28|4.20|4.77|4.60|2.36|1.90|1.08|2.32|5.20|6.56|5.87,1465,25,35,15,nasa_power,2026-03-20
15_Presidente_Hayes,Jose_Falcon,Departamentos/15_Presidente_Hayes/Jose_Falcon,-25.215938,-57.7130949,6.76|6.20|5.42|4.44|3.36|2.83|3.21|3.93|4.61|5.49|6.42|6.78,4.95,3.98|5.28|4.20|4.77|4.60|2.36|1.90|1.08|2.32|5.20|6.56|5.87,1465,25,35,15,nasa_power,2026-03-20
15_Presidente_Hayes,Nanawa,Departamentos/15_Presidente_Hayes/Nanawa,-25.2803256,-57.7029628,6.76|6.20|5.42|4.44|3.36|2.83|3.21|3.93|4.61|5.49|6.42|6.78,4.95,4.06|4.92|4.37|4.97|4.62|2.47|2.03|1.23|2.44|5.27|6.35|5.78,1477,25,35,15,nasa_power,2026-03-20
15_Presidente_Hayes,Nueva_Asuncion,Departamentos/15_Presidente_Hayes/Nueva_Asuncion,-25.2520156,-57.6415393,6.76|6.20|5.42|4.44|3.36|2.83|3.21|3.93|4.61|5.49|6.42|6.78,4.95,4.06|4.92|4.37|4.97|4.62|2.47|2.03|1.23|2.44|5.27|6.35|5.78,1477,25,35,15,nasa_power,2026-03-20
15_Presidente_Hayes,Puerto_Pinasco,Departamentos/15_Presidente_Hayes/Puerto_Pinasco,-22.6454007,-57.8402156,6.55|5.94|5.63|4.73|3.58|3.17|3.41|4.19|4.70|5.44|6.28|6.49,5.01,4.90|5.26|3.87|3.95|3.42|1.89|1.23|0.73|1.82|4.20|6.73|5.40,1321,23,33,13,nasa_power,2026-03-20
15_Presidente_Hayes,Teniente_Esteban_Martinez,Departamentos/15_Presidente_Hayes/Teniente_Esteban_Martinez,-23.9712786,-59.7561724,6.68|6.08|5.46|4.44|3.41|2.94|3.33|4.15|4.84|5.56|6.36|6.59,4.99,4.06|4.56|4.19|3.31|2.31|0.82|0.75|0.48|0.94|2.57|3.89|4.30,980,24,34,14,nasa_power,2026-03-20
15_Presidente_Hayes,Teniente_Irala_Fernandez,Departamentos/15_Presidente_Hayes/Teniente_Irala_Fernandez,-23.2053339,-59.7676341,6.68|6.08|5.46|4.44|3.41|2.94|3.33|4.15|4.84|5.56|6.36|6.59,4.99,3.34|4.32|3.54|2.64|1.88|0.70|0.51|0.36|0.63|2.24|3.24|3.69,825,23,33,13,nasa_power,2026-03-20
15_Presidente_Hayes,Villa_Hayes,Departamentos/15_Presidente_Hayes/Villa_Hayes,-25.0928654,-57.5246478,6.76|6.20|5.42|4.44|3.36|2.83|3.21|3.93|4.61|5.49|6.42|6.78,4.95,3.98|5.28|4.20|4.77|4.60|2.36|1.90|1.08|2.32|5.20|6.56|5.87,1465,25,35,15,nasa_power,2026-03-20
16_Boqueron,Boqueron,Departamentos/16_Boqueron/Boqueron,-22.7724228,-59.9408946,6.67|6.10|5.57|4.55|3.49|3.01|3.39|4.22|4.82|5.55|6.35|6.57,5.02,3.34|4.32|3.54|2.64|1.88|0.70|0.51|0.36|0.63|2.24|3.24|3.69,825,23,33,13,nasa_power,2026-03-20
16_Boqueron,Filadelfia,Departamentos/16_Boqueron/Filadelfia,-22.333333333,-60.016666666,6.59|6.02|5.41|4.37|3.38|2.88|3.34|4.19|4.79|5.46|6.25|6.43,4.93,3.36|4.51|3.39|2.66|2.04|0.87|0.57|0.38|0.74|2.43|3.54|3.77,860,22,32,12,nasa_power,2026-03-20
16_Boqueron,Loma_Plata,Departamentos/16_Boqueron/Loma_Plata,-22.3848499,-59.8382177,6.67|6.10|5.57|4.55|3.49|3.01|3.39|4.22|4.82|5.55|6.35|6.57,5.02,3.36|4.51|3.39|2.66|2.04|0.87|0.57|0.38|0.74|2.43|3.54|3.77,860,22,32,12,nasa_power,2026-03-20
16_Boqueron,Mariscal_Estigarribia,Departamentos/16_Boqueron/Mariscal_Estigarribia,-22.0297927,-60.5984488,6.59|6.02|5.41|4.37|3.38|2.88|3.34|4.19|4.79|5.46|6.25|6.43,4.93,3.05|4.09|2.98|2.10|1.20|0.47|0.25|0.20|0.40|1.69|2.28|2.95,659,22,32,12,nasa_power,2026-03-20
17_Alto_Paraguay,Bahia_Negra,Departamentos/17_Alto_Paraguay/Bahia_Negra,-20.2308712,-58.1690716,6.35|5.85|5.61|4.86|3.73|3.36|3.71|4.40|4.74|5.38|6.15|6.29,5.04,4.37|4.74|3.30|2.15|2.12|0.82|0.65|0.45|1.26|2.75|3.44|4.49,930,20,30,10,nasa_power,2026-03-20
17_Alto_Paraguay,Capitan_Carmelo_Peralta,Departamentos/17_Alto_Paraguay/Capitan_Carmelo_Peralta,-25.4633647,-56.4539106,6.74|6.20|5.50|4.48|3.35|2.88|3.21|3.96|4.59|5.43|6.43|6.81,4.96,4.22|4.82|4.21|5.08|5.55|3.01|2.43|1.68|3.07|6.04|6.33|5.37,1577,25,35,15,nasa_power,2026-03-20
17_Alto_Paraguay,Fuerte_Olimpo,Departamentos/17_Alto_Paraguay/Fuerte_Olimpo,-21.0385406,-57.8748123,6.43|5.94|5.66|4.87|3.72|3.33|3.58|4.35|4.83|5.51|6.31|6.42,5.08,3.94|4.75|3.21|2.60|2.58|1.34|0.85|0.50|1.38|3.19|4.71|4.14,1010,21,31,11,nasa_power,2026-03-20
17_Alto_Paraguay,Puerto_Casado,Departamentos/17_Alto_Paraguay/Puerto_Casado,-22.285746,-57.9431435,6.55|5.94|5.63|4.73|3.58|3.17|3.41|4.19|4.70|5.44|6.28|6.49,5.01,4.90|5.26|3.87|3.95|3.42|1.89|1.23|0.73|1.82|4.20|6.73|5.40,1321,22,32,12,nasa_power,2026-03-20
00_Distrito_Capital,Asuncion,Departamentos/00_Distrito_Capital/Asuncion,-25.2800459,-57.6343814,6.76|6.20|5.42|4.44|3.36|2.83|3.21|3.93|4.61|5.49|6.42|6.78,4.95,4.06|4.92|4.37|4.97|4.62|2.47|2.03|1.23|2.44|5.27|6.35|5.78,1477,25,35,15,nasa_power,2026-03-20
01_Concepcion,Arroyito,Departamentos/01_Concepcion/Arroyito,-23.1736945,-56.7749397,6.60|6.02|5.62|4.65|3.48|3.07|3.35|4.15|4.72|5.46|6.29|6.53,4.99,5.33|5.55|3.79|4.45|3.61|2.37|1.49|1.02|2.43|4.71|6.83|5.32,1428,23,33,13,nasa_power,2026-03-20
01_Concepcion,Azotey,Departamentos/01_Concepcion/Azotey,-23.3145263,-56.4883184,6.60|6.02|5.62|4.65|3.48|3.07|3.35|4.15|4.72|5.46|6.29|6.53,4.99,5.02|6.05|3.88|4.59|4.15|2.69|1.75|1.40|2.84|5.35|6.49|5.50,1513,23,33,13,nasa_power,2026-03-20
01_Concepcion,Belen,Departamentos/01_Concepcion/Belen,-23.4698991,-57.263577,6.68|6.07|5.58|4.63|3.47|3.00|3.30|4.09|4.68|5.49|6.34|6.61,5.0,5.06|5.33|3.86|4.64|3.74|2.38|1.55|1.01|2.42|4.87|6.80|5.38,1432,23,33,13,nasa_power,2026-03-20
01_Concepcion,Concepcion,Departamentos/01_Concepcion/Concepcion,-23.4068158,-57.4427755,6.68|6.07|5.58|4.63|3.47|3.00|3.30|4.09|4.68|5.49|6.34|6.61,5.0,5.06|5.33|3.86|4.64|3.74|2.38|1.55|1.01|2.42|4.87|6.80|5.38,1432,23,33,13,nasa_power,2026-03-20
01_Concepcion,Horqueta,Departamentos/01_Concepcion/Horqueta,-23.344573,-57.0513696,6.68|6.07|5.58|4.63|3.47|3.00|3.30|4.09|4.68|5.49|6.34|6.61,5.0,5.04|5.34|3.81|4.67|3.81|2.48|1.61|1.04|2.55|4.97|6.84|5.33,1446,23,33,13,nasa_power,2026-03-20
01_Concepcion,Itacua,Departamentos/01_Concepcion/Itacua,-22.4849968,-57.8399918,6.55|5.94|5.63|4.73|3.58|3.17|3.41|4.19|4.70|5.44|6.28|6.49,5.01,4.90|5.26|3.87|3.95|3.42|1.89|1.23|0.73|1.82|4.20|6.73|5.40,1321,22,32,12,nasa_power,2026-03-20
01_Concepcion,Loreto,Departamentos/01_Concepcion/Loreto,-23.2745683,-57.3238358,6.68|6.07|5.58|4.63|3.47|3.00|3.30|4.09|4.68|5.49|6.34|6.61,5.0,5.06|5.33|3.86|4.64|3.74|2.38|1.55|1.01|2.42|4.87|6.80|5.38,1432,23,33,13,nasa_power,2026-03-20
01_Concepcion,Paso_Barreto,Departamentos/01_Concepcion/Paso_Barreto,-23.0484433,-57.1218936,6.68|6.07|5.58|4.63|3.47|3.00|3.30|4.09|4.68|5.49|6.34|6.61,5.0,5.33|5.55|3.79|4.45|3.61|2.37|1.49|1.02|2.43|4.71|6.83|5.32,1428,23,33,13,nasa_power,2026-03-20
01_Concepcion,Paso_Horqueta,Departamentos/01_Concepcion/Paso_Horqueta,-23.0756831,-57.3851592,6.68|6.07|5.58|4.63|3.47|3.00|3.30|4.09|4.68|5.49|6.34|6.61,5.0,5.29|5.35|3.90|4.49|3.49|2.24|1.40|0.92|2.25|4.55|6.96|5.33,1405,23,33,13,nasa_power,2026-03-20
01_Concepcion,San_Alfredo,Departamentos/01_Concepcion/San_Alfredo,-22.8844489,-57.4050333,6.55|5.94|5.63|4.73|3.58|3.17|3.41|4.19|4.70|5.44|6.28|6.49,5.01,5.29|5.35|3.90|4.49|3.49|2.24|1.40|0.92|2.25|4.55|6.96|5.33,1405,23,33,13,nasa_power,2026-03-20
01_Concepcion,San_Carlos_del_Apa,Departamentos/01_Concepcion/San_Carlos_del_Apa,-22.2451434,-57.2873989,6.55|5.94|5.63|4.73|3.58|3.17|3.41|4.19|4.70|5.44|6.28|6.49,5.01,4.81|5.23|3.40|3.53|3.29|1.93|1.22|0.82|1.95|3.99|5.99|4.86,1249,22,32,12,nasa_power,2026-03-20
01_Concepcion,San_Lazaro,Departamentos/01_Concepcion/San_Lazaro,-22.1078086,-57.9629855,6.55|5.94|5.63|4.73|3.58|3.17|3.41|4.19|4.70|5.44|6.28|6.49,5.01,4.50|5.11|3.57|3.48|3.25|1.79|1.14|0.66|1.68|3.83|6.39|4.89,1226,22,32,12,nasa_power,2026-03-20
01_Concepcion,Sargento_Jose_Felix_Lopez,Departamentos/01_Concepcion/Sargento_Jose_Felix_Lopez,-20.5630771,-62.2657793,6.14|5.62|5.08|4.19|3.33|2.97|3.57|4.51|4.88|5.46|6.00|5.97,4.81,4.15|4.78|3.30|2.10|0.67|0.37|0.21|0.09|0.37|1.25|2.18|4.08,717,21,31,11,nasa_power,2026-03-20
01_Concepcion,Yby_Yau,Departamentos/01_Concepcion/Yby_Yau,-22.9664133,-56.5447268,6.44|5.92|5.66|4.74|3.62|3.27|3.51|4.32|4.78|5.46|6.22|6.37,5.03,5.73|6.48|3.81|4.42|3.90|2.65|1.61|1.40|2.78|5.13|6.33|5.60,1517,23,33,13,nasa_power,2026-03-20
02_San_Pedro,25_de_Diciembre,Departamentos/02_San_Pedro/25_de_Diciembre,-24.8131845,-56.7267452,6.73|6.14|5.58|4.61|3.40|2.96|3.24|4.04|4.62|5.38|6.37|6.67,4.98,4.01|5.16|4.08|4.81|5.02|2.63|2.06|1.22|2.64|5.54|6.51|5.62,1501,25,35,15,nasa_power,2026-03-20
02_San_Pedro,Antequera,Departamentos/02_San_Pedro/Antequera,-24.085699,-57.2002552,6.64|6.12|5.48|4.54|3.38|2.87|3.21|3.93|4.62|5.45|6.37|6.67,4.94,4.53|5.36|3.81|4.66|4.20|2.48|1.75|1.07|2.54|5.11|6.60|5.46,1448,24,34,14,nasa_power,2026-03-20
02_San_Pedro,Capiibary,Departamentos/02_San_Pedro/Capiibary,-24.7260964,-56.0162159,6.73|6.14|5.58|4.61|3.40|2.96|3.24|4.04|4.62|5.38|6.37|6.67,4.98,3.87|5.26|3.84|4.83|5.36|2.93|2.09|1.42|3.16|5.77|6.31|5.40,1529,25,35,15,nasa_power,2026-03-20
02_San_Pedro,Chore,Departamentos/02_San_Pedro/Chore,-24.1858573,-56.5832982,6.73|6.14|5.58|4.61|3.40|2.96|3.24|4.04|4.62|5.38|6.37|6.67,4.98,4.39|5.38|3.67|4.73|4.50|2.66|1.89|1.18|2.77|5.36|6.53|5.43,1476,24,34,14,nasa_power,2026-03-20
02_San_Pedro,General_Elizardo_Aquino,Departamentos/02_San_Pedro/General_Elizardo_Aquino,-24.4465037,-56.8994063,6.73|6.14|5.58|4.61|3.40|2.96|3.24|4.04|4.62|5.38|6.37|6.67,4.98,4.04|5.25|3.80|4.78|4.94|2.68|1.98|1.20|2.76|5.48|6.46|5.49,1487,24,34,14,nasa_power,2026-03-20
02_San_Pedro,General_Resquin,Departamentos/02_San_Pedro/General_Resquin,-24.0917657,-57.0691874,6.64|6.12|5.48|4.54|3.38|2.87|3.21|3.93|4.62|5.45|6.37|6.67,4.94,4.39|5.38|3.67|4.73|4.50|2.66|1.89|1.18|2.77|5.36|6.53|5.43,1476,24,34,14,nasa_power,2026-03-20
02_San_Pedro,Guayaibi,Departamentos/02_San_Pedro/Guayaibi,-24.5276771,-56.406702,6.73|6.14|5.58|4.61|3.40|2.96|3.24|4.04|4.62|5.38|6.37|6.67,4.98,3.87|5.26|3.84|4.83|5.36|2.93|2.09|1.42|3.16|5.77|6.31|5.40,1529,25,35,15,nasa_power,2026-03-20
02_San_Pedro,Itacurubi,Departamentos/02_San_Pedro/Itacurubi,-24.5360385,-56.8248844,6.73|6.14|5.58|4.61|3.40|2.96|3.24|4.04|4.62|5.38|6.37|6.67,4.98,4.04|5.25|3.80|4.78|4.94|2.68|1.98|1.20|2.76|5.48|6.46|5.49,1487,25,35,15,nasa_power,2026-03-20
02_San_Pedro,Itacurubi_del_Rosario,Departamentos/02_San_Pedro/Itacurubi_del_Rosario,-24.5360385,-56.8248844,6.73|6.14|5.58|4.61|3.40|2.96|3.24|4.04|4.62|5.38|6.37|6.67,4.98,4.04|5.25|3.80|4.78|4.94|2.68|1.98|1.20|2.76|5.48|6.46|5.49,1487,25,35,15,nasa_power,2026-03-20
02_San_Pedro,Liberacion,Departamentos/02_San_Pedro/Liberacion,-24.1921208,-56.4349632,6.73|6.14|5.58|4.61|3.40|2.96|3.24|4.04|4.62|5.38|6.37|6.67,4.98,4.30|5.59|3.83|4.68|4.70|2.79|1.94|1.42|3.00|5.56|6.44|5.43,1512,24,34,14,nasa_power,2026-03-20
02_San_Pedro,Lima,Departamentos/02_San_Pedro/Lima,-23.8807425,-56.4824428,6.60|6.02|5.62|4.65|3.48|3.07|3.35|4.15|4.72|5.46|6.29|6.53,4.99,4.30|5.59|3.83|4.68|4.70|2.79|1.94|1.42|3.00|5.56|6.44|5.43,1512,24,34,14,nasa_power,2026-03-20
02_San_Pedro,Nueva_Germania,Departamentos/02_San_Pedro/Nueva_Germania,-23.9121136,-56.701067,6.60|6.02|5.62|4.65|3.48|3.07|3.35|4.15|4.72|5.46|6.29|6.53,4.99,4.39|5.38|3.67|4.73|4.50|2.66|1.89|1.18|2.77|5.36|6.53|5.43,1476,24,34,14,nasa_power,2026-03-20
02_San_Pedro,San_Estanislao,Departamentos/02_San_Pedro/San_Estanislao,-24.6657428,-56.4416798,6.73|6.14|5.58|4.61|3.40|2.96|3.24|4.04|4.62|5.38|6.37|6.67,4.98,3.87|5.26|3.84|4.83|5.36|2.93|2.09|1.42|3.16|5.77|6.31|5.40,1529,25,35,15,nasa_power,2026-03-20
02_San_Pedro,San_Pablo,Departamentos/02_San_Pedro/San_Pablo,-24.1042864,-56.8648728,6.73|6.14|5.58|4.61|3.40|2.96|3.24|4.04|4.62|5.38|6.37|6.67,4.98,4.39|5.38|3.67|4.73|4.50|2.66|1.89|1.18|2.77|5.36|6.53|5.43,1476,24,34,14,nasa_power,2026-03-20
02_San_Pedro,San_Pedro_de_Ycuamandiyu,Departamentos/02_San_Pedro/San_Pedro_de_Ycuamandiyu,-24.0833,-57.0833,6.64|6.12|5.48|4.54|3.38|2.87|3.21|3.93|4.62|5.45|6.37|6.67,4.94,4.39|5.38|3.67|4.73|4.50|2.66|1.89|1.18|2.77|5.36|6.53|5.43,1476,24,34,14,nasa_power,2026-03-20
02_San_Pedro,San_Vicente_Pancholo,Departamentos/02_San_Pedro/San_Vicente_Pancholo,-23.7333,-56.5,6.60|6.02|5.62|4.65|3.48|3.07|3.35|4.15|4.72|5.46|6.29|6.53,4.99,5.02|6.05|3.88|4.59|4.15|2.69|1.75|1.40|2.84|5.35|6.49|5.50,1513,24,34,14,nasa_power,2026-03-20
02_San_Pedro,Santa_Rosa_del_Aguaray,Departamentos/02_San_Pedro/Santa_Rosa_del_Aguaray,-23.8259783,-56.5207034,6.60|6.02|5.62|4.65|3.48|3.07|3.35|4.15|4.72|5.46|6.29|6.53,4.99,4.30|5.59|3.83|4.68|4.70|2.79|1.94|1.42|3.00|5.56|6.44|5.43,1512,24,34,14,nasa_power,2026-03-20
02_San_Pedro,Tacuati,Departamentos/02_San_Pedro/Tacuati,-23.4572643,-56.7384496,6.60|6.02|5.62|4.65|3.48|3.07|3.35|4.15|4.72|5.46|6.29|6.53,4.99,5.04|5.34|3.81|4.67|3.81|2.48|1.61|1.04|2.55|4.97|6.84|5.33,1446,23,33,13,nasa_power,2026-03-20
02_San_Pedro,Union,Departamentos/02_San_Pedro/Union,-24.8076366,-56.5190779,6.73|6.14|5.58|4.61|3.40|2.96|3.24|4.04|4.62|5.38|6.37|6.67,4.98,4.01|5.07|4.02|4.91|5.57|2.99|2.26|1.49|3.14|5.94|6.33|5.41,1557,25,35,15,nasa_power,2026-03-20
02_San_Pedro,Villa_del_Rosario,Departamentos/02_San_Pedro/Villa_del_Rosario,-24.4233326,-57.1129598,6.64|6.12|5.48|4.54|3.38|2.87|3.21|3.93|4.62|5.45|6.37|6.67,4.94,4.04|5.25|3.80|4.78|4.94|2.68|1.98|1.20|2.76|5.48|6.46|5.49,1487,24,34,14,nasa_power,2026-03-20
02_San_Pedro,Yataity_del_Norte,Departamentos/02_San_Pedro/Yataity_del_Norte,-24.8459312,-56.3560445,6.73|6.14|5.58|4.61|3.40|2.96|3.24|4.04|4.62|5.38|6.37|6.67,4.98,4.01|5.07|4.02|4.91|5.57|2.99|2.26|1.49|3.14|5.94|6.33|5.41,1557,25,35,15,nasa_power,2026-03-20
02_San_Pedro,Yrybucua,Departamentos/02_San_Pedro/Yrybucua,-24.479991,-56.085646,6.73|6.14|5.58|4.61|3.40|2.96|3.24|4.04|4.62|5.38|6.37|6.67,4.98,3.87|5.26|3.84|4.83|5.36|2.93|2.09|1.42|3.16|5.77|6.31|5.40,1529,24,34,14,nasa_power,2026-03-20
03_Cordillera,Altos,Departamentos/03_Cordillera/Altos,-25.2617324,-57.2492898,6.76|6.20|5.42|4.44|3.36|2.83|3.21|3.93|4.61|5.49|6.42|6.78,4.95,4.06|4.92|4.37|4.97|4.62|2.47|2.03|1.23|2.44|5.27|6.35|5.78,1477,25,35,15,nasa_power,2026-03-20
03_Cordillera,Arroyos_y_Esteros,Departamentos/03_Cordillera/Arroyos_y_Esteros,-25.0541561,-57.0970807,6.76|6.20|5.42|4.44|3.36|2.83|3.21|3.93|4.61|5.49|6.42|6.78,4.95,4.01|5.16|4.08|4.81|5.02|2.63|2.06|1.22|2.64|5.54|6.51|5.62,1501,25,35,15,nasa_power,2026-03-20
03_Cordillera,Caacupe,Departamentos/03_Cordillera/Caacupe,-25.3856888,-57.140477,6.76|6.20|5.42|4.44|3.36|2.83|3.21|3.93|4.61|5.49|6.42|6.78,4.95,4.09|4.96|4.29|4.95|4.91|2.61|2.14|1.32|2.58|5.53|6.42|5.66,1506,25,35,15,nasa_power,2026-03-20
03_Cordillera,Caraguatay,Departamentos/03_Cordillera/Caraguatay,-25.2395075,-56.8252913,6.74|6.20|5.50|4.48|3.35|2.88|3.21|3.96|4.59|5.43|6.43|6.81,4.96,4.01|5.16|4.08|4.81|5.02|2.63|2.06|1.22|2.64|5.54|6.51|5.62,1501,25,35,15,nasa_power,2026-03-20
03_Cordillera,Emboscada,Departamentos/03_Cordillera/Emboscada,-25.1250628,-57.349522,6.76|6.20|5.42|4.44|3.36|2.83|3.21|3.93|4.61|5.49|6.42|6.78,4.95,3.98|5.28|4.20|4.77|4.60|2.36|1.90|1.08|2.32|5.20|6.56|5.87,1465,25,35,15,nasa_power,2026-03-20
03_Cordillera,Eusebio_Ayala,Departamentos/03_Cordillera/Eusebio_Ayala,-25.3826238,-56.9622692,6.74|6.20|5.50|4.48|3.35|2.88|3.21|3.96|4.59|5.43|6.43|6.81,4.96,4.09|4.96|4.29|4.95|4.91|2.61|2.14|1.32|2.58|5.53|6.42|5.66,1506,25,35,15,nasa_power,2026-03-20
03_Cordillera,Isla_Pucu,Departamentos/03_Cordillera/Isla_Pucu,-25.3084188,-56.8994355,6.74|6.20|5.50|4.48|3.35|2.88|3.21|3.96|4.59|5.43|6.43|6.81,4.96,4.09|4.96|4.29|4.95|4.91|2.61|2.14|1.32|2.58|5.53|6.42|5.66,1506,25,35,15,nasa_power,2026-03-20
03_Cordillera,Itacurubi_de_la_Cordillera,Departamentos/03_Cordillera/Itacurubi_de_la_Cordillera,-25.4631759,-56.847988,6.74|6.20|5.50|4.48|3.35|2.88|3.21|3.96|4.59|5.43|6.43|6.81,4.96,4.09|4.96|4.29|4.95|4.91|2.61|2.14|1.32|2.58|5.53|6.42|5.66,1506,25,35,15,nasa_power,2026-03-20
03_Cordillera,Juan_de_Mena,Departamentos/03_Cordillera/Juan_de_Mena,-24.954092,-56.7627916,6.73|6.14|5.58|4.61|3.40|2.96|3.24|4.04|4.62|5.38|6.37|6.67,4.98,4.01|5.16|4.08|4.81|5.02|2.63|2.06|1.22|2.64|5.54|6.51|5.62,1501,25,35,15,nasa_power,2026-03-20
03_Cordillera,Loma_Grande,Departamentos/03_Cordillera/Loma_Grande,-25.1777335,-57.2335766,6.76|6.20|5.42|4.44|3.36|2.83|3.21|3.93|4.61|5.49|6.42|6.78,4.95,3.98|5.28|4.20|4.77|4.60|2.36|1.90|1.08|2.32|5.20|6.56|5.87,1465,25,35,15,nasa_power,2026-03-20
03_Cordillera,Mbocayaty_del_Yhaguy,Departamentos/03_Cordillera/Mbocayaty_del_Yhaguy,-25.3418119,-56.7263211,6.74|6.20|5.50|4.48|3.35|2.88|3.21|3.96|4.59|5.43|6.43|6.81,4.96,4.09|4.96|4.29|4.95|4.91|2.61|2.14|1.32|2.58|5.53|6.42|5.66,1506,25,35,15,nasa_power,2026-03-20
03_Cordillera,Nueva_Colombia,Departamentos/03_Cordillera/Nueva_Colombia,-25.1879075,-57.305443,6.76|6.20|5.42|4.44|3.36|2.83|3.21|3.93|4.61|5.49|6.42|6.78,4.95,3.98|5.28|4.20|4.77|4.60|2.36|1.90|1.08|2.32|5.20|6.56|5.87,1465,25,35,15,nasa_power,2026-03-20
03_Cordillera,Piribebuy,Departamentos/03_Cordillera/Piribebuy,-25.4644144,-57.0422264,6.76|6.20|5.42|4.44|3.36|2.83|3.21|3.93|4.61|5.49|6.42|6.78,4.95,4.09|4.96|4.29|4.95|4.91|2.61|2.14|1.32|2.58|5.53|6.42|5.66,1506,25,35,15,nasa_power,2026-03-20
03_Cordillera,Primero_de_Marzo,Departamentos/03_Cordillera/Primero_de_Marzo,-25.1530253,-56.9280309,6.74|6.20|5.50|4.48|3.35|2.88|3.21|3.96|4.59|5.43|6.43|6.81,4.96,4.01|5.16|4.08|4.81|5.02|2.63|2.06|1.22|2.64|5.54|6.51|5.62,1501,25,35,15,nasa_power,2026-03-20
03_Cordillera,San_Bernardino,Departamentos/03_Cordillera/San_Bernardino,-25.3087796,-57.2958319,6.76|6.20|5.42|4.44|3.36|2.83|3.21|3.93|4.61|5.49|6.42|6.78,4.95,4.06|4.92|4.37|4.97|4.62|2.47|2.03|1.23|2.44|5.27|6.35|5.78,1477,25,35,15,nasa_power,2026-03-20
03_Cordillera,San_Jose_de_los_Arroyos,Departamentos/03_Cordillera/San_Jose_de_los_Arroyos,-25.4724736,-56.7161598,6.74|6.20|5.50|4.48|3.35|2.88|3.21|3.96|4.59|5.43|6.43|6.81,4.96,4.09|4.96|4.29|4.95|4.91|2.61|2.14|1.32|2.58|5.53|6.42|5.66,1506,25,35,15,nasa_power,2026-03-20
03_Cordillera,Santa_Elena,Departamentos/03_Cordillera/Santa_Elena,-25.4144566,-56.797215,6.74|6.20|5.50|4.48|3.35|2.88|3.21|3.96|4.59|5.43|6.43|6.81,4.96,4.09|4.96|4.29|4.95|4.91|2.61|2.14|1.32|2.58|5.53|6.42|5.66,1506,25,35,15,nasa_power,2026-03-20
